[
 {
   "Agglomeration_ID": 1,
   "Names": "Cotonou",
   "ISO3": "BEN",
   "City_Size": 1158625,
   "GrowthRate": 0.37,
   "Market_Potential": 2555159,
   "Urban_Rate": 0.78,
   "Local_Dominance": 0.8499,
   "Voronoi_area_km_square": "108",
   "Lon": 2.42,
   "Lat": 6.37,
   "CitySize_category": "1000~2000",
   "Cluster_group": " Global African Cities "
 },
 {
   "Agglomeration_ID": 2,
   "Names": "Porto-Novo",
   "ISO3": "BEN",
   "City_Size": 476780,
   "GrowthRate": 0.54,
   "Market_Potential": 2845168,
   "Urban_Rate": 0.79,
   "Local_Dominance": 0.1423,
   "Voronoi_area_km_square": "82",
   "Lon": 2.625,
   "Lat": 6.475,
   "CitySize_category": "350~1000",
   "Cluster_group": " Metropolitan Areas "
 },
 {
   "Agglomeration_ID": 3,
   "Names": "Abomey",
   "ISO3": "BEN",
   "City_Size": 197398,
   "GrowthRate": 0.5,
   "Market_Potential": 901139,
   "Urban_Rate": 0.28,
   "Local_Dominance": 0.9615,
   "Voronoi_area_km_square": "2,632",
   "Lon": 1.999,
   "Lat": 7.173,
   "CitySize_category": "100~350",
   "Cluster_group": " Local Cities "
 },
 {
   "Agglomeration_ID": 4,
   "Names": "Parakou",
   "ISO3": "BEN",
   "City_Size": 196524,
   "GrowthRate": 0.47,
   "Market_Potential": 362539,
   "Urban_Rate": 0.62,
   "Local_Dominance": 0.9897,
   "Voronoi_area_km_square": "1,676",
   "Lon": 2.627,
   "Lat": 9.34,
   "CitySize_category": "100~350",
   "Cluster_group": " Local Cities "
 },
 {
   "Agglomeration_ID": 5,
   "Names": "Djougou",
   "ISO3": "BEN",
   "City_Size": 65264,
   "GrowthRate": 0.34,
   "Market_Potential": 408396,
   "Urban_Rate": 0.32,
   "Local_Dominance": 0.8231,
   "Voronoi_area_km_square": "1,311",
   "Lon": 1.664,
   "Lat": 9.71,
   "CitySize_category": "30~100",
   "Cluster_group": " Local Cities "
 },
 {
   "Agglomeration_ID": 6,
   "Names": "Ouidah",
   "ISO3": "BEN",
   "City_Size": 47707,
   "GrowthRate": 0.56,
   "Market_Potential": 1737287,
   "Urban_Rate": 0.8,
   "Local_Dominance": 0.0017,
   "Voronoi_area_km_square": "424",
   "Lon": 2.081,
   "Lat": 6.36,
   "CitySize_category": "30~100",
   "Cluster_group": " Satellite Town "
 },
 {
   "Agglomeration_ID": 7,
   "Names": "Ekpé",
   "ISO3": "BEN",
   "City_Size": 45009,
   "GrowthRate": 0.48,
   "Market_Potential": 2668854,
   "Urban_Rate": 0.77,
   "Local_Dominance": 0.0013,
   "Voronoi_area_km_square": "68",
   "Lon": 2.54,
   "Lat": 6.388,
   "CitySize_category": "30~100",
   "Cluster_group": " Satellite Town "
 },
 {
   "Agglomeration_ID": 8,
   "Names": "Malanville",
   "ISO3": "BEN",
   "City_Size": 43939,
   "GrowthRate": 0.45,
   "Market_Potential": 409005,
   "Urban_Rate": 0.37,
   "Local_Dominance": 0.332,
   "Voronoi_area_km_square": "4,335",
   "Lon": 3.443,
   "Lat": 11.888,
   "CitySize_category": "30~100",
   "Cluster_group": " Rural Clusters "
 },
 {
   "Agglomeration_ID": 9,
   "Names": "Natitingou",
   "ISO3": "BEN",
   "City_Size": 40943,
   "GrowthRate": 0.4,
   "Market_Potential": 294846,
   "Urban_Rate": 0.2,
   "Local_Dominance": 0.8252,
   "Voronoi_area_km_square": "2,883",
   "Lon": 1.376,
   "Lat": 10.302,
   "CitySize_category": "30~100",
   "Cluster_group": " Rural Town "
 },
 {
   "Agglomeration_ID": 10,
   "Names": "Pobé",
   "ISO3": "BEN",
   "City_Size": 39985,
   "GrowthRate": 0.35,
   "Market_Potential": 907356,
   "Urban_Rate": 0.29,
   "Local_Dominance": 0.1619,
   "Voronoi_area_km_square": "437",
   "Lon": 2.665,
   "Lat": 6.979,
   "CitySize_category": "30~100",
   "Cluster_group": " Rural Clusters "
 },
 {
   "Agglomeration_ID": 11,
   "Names": "Cové",
   "ISO3": "BEN",
   "City_Size": 36303,
   "GrowthRate": 0.69,
   "Market_Potential": 870242,
   "Urban_Rate": 0.34,
   "Local_Dominance": 0.0316,
   "Voronoi_area_km_square": "1,577",
   "Lon": 2.34,
   "Lat": 7.219,
   "CitySize_category": "30~100",
   "Cluster_group": " Rural Clusters "
 },
 {
   "Agglomeration_ID": 12,
   "Names": "Lokossa",
   "ISO3": "BEN",
   "City_Size": 36071,
   "GrowthRate": 0.36,
   "Market_Potential": 1311841,
   "Urban_Rate": 0.28,
   "Local_Dominance": 0.162,
   "Voronoi_area_km_square": "416",
   "Lon": 1.71,
   "Lat": 6.64,
   "CitySize_category": "30~100",
   "Cluster_group": " Rural Clusters "
 },
 {
   "Agglomeration_ID": 13,
   "Names": "Savé",
   "ISO3": "BEN",
   "City_Size": 35302,
   "GrowthRate": 0.4,
   "Market_Potential": 210419,
   "Urban_Rate": 0.27,
   "Local_Dominance": 0.7119,
   "Voronoi_area_km_square": "3,089",
   "Lon": 2.5,
   "Lat": 8.03,
   "CitySize_category": "30~100",
   "Cluster_group": " Rural Town "
 },
 {
   "Agglomeration_ID": 14,
   "Names": "Savalou",
   "ISO3": "BEN",
   "City_Size": 34473,
   "GrowthRate": 0.41,
   "Market_Potential": 302824,
   "Urban_Rate": 0.33,
   "Local_Dominance": 0.4427,
   "Voronoi_area_km_square": "3,267",
   "Lon": 1.973,
   "Lat": 7.927,
   "CitySize_category": "30~100",
   "Cluster_group": " Rural Clusters "
 },
 {
   "Agglomeration_ID": 15,
   "Names": "Ouéssé Centre",
   "ISO3": "BEN",
   "City_Size": 34373,
   "GrowthRate": 0.51,
   "Market_Potential": 160077,
   "Urban_Rate": 0.28,
   "Local_Dominance": 0.9196,
   "Voronoi_area_km_square": "2,096",
   "Lon": 2.435,
   "Lat": 8.495,
   "CitySize_category": "30~100",
   "Cluster_group": " Rural Town "
 },
 {
   "Agglomeration_ID": 16,
   "Names": "Comé",
   "ISO3": "BEN",
   "City_Size": 33335,
   "GrowthRate": 0.44,
   "Market_Potential": 1065646,
   "Urban_Rate": 0.26,
   "Local_Dominance": 0.1532,
   "Voronoi_area_km_square": "416",
   "Lon": 1.885,
   "Lat": 6.407,
   "CitySize_category": "30~100",
   "Cluster_group": " Rural Clusters "
 },
 {
   "Agglomeration_ID": 17,
   "Names": "Kétou",
   "ISO3": "BEN",
   "City_Size": 31840,
   "GrowthRate": 0.37,
   "Market_Potential": 556100,
   "Urban_Rate": 0.19,
   "Local_Dominance": 0.3093,
   "Voronoi_area_km_square": "1,244",
   "Lon": 2.611,
   "Lat": 7.367,
   "CitySize_category": "30~100",
   "Cluster_group": " Rural Clusters "
 },
 {
   "Agglomeration_ID": 18,
   "Names": "Sokomey",
   "ISO3": "BEN",
   "City_Size": 29790,
   "GrowthRate": 0.49,
   "Market_Potential": 2758151,
   "Urban_Rate": 0.73,
   "Local_Dominance": 0.0006,
   "Voronoi_area_km_square": "121",
   "Lon": 2.39,
   "Lat": 6.466,
   "CitySize_category": "10~30",
   "Cluster_group": " Satellite Town "
 },
 {
   "Agglomeration_ID": 19,
   "Names": "Dogbo-Tota",
   "ISO3": "BEN",
   "City_Size": 29364,
   "GrowthRate": 0.4,
   "Market_Potential": 1220110,
   "Urban_Rate": 0.18,
   "Local_Dominance": 0.178,
   "Voronoi_area_km_square": "316",
   "Lon": 1.779,
   "Lat": 6.793,
   "CitySize_category": "10~30",
   "Cluster_group": " Rural Clusters "
 },
 {
   "Agglomeration_ID": 20,
   "Names": "Gbétigao",
   "ISO3": "BEN",
   "City_Size": 28099,
   "GrowthRate": 0.53,
   "Market_Potential": 2776616,
   "Urban_Rate": 0.72,
   "Local_Dominance": 0.0005,
   "Voronoi_area_km_square": "82",
   "Lon": 2.416,
   "Lat": 6.466,
   "CitySize_category": "10~30",
   "Cluster_group": " Satellite Town "
 },
 {
   "Agglomeration_ID": 21,
   "Names": "Kandi",
   "ISO3": "BEN",
   "City_Size": 27528,
   "GrowthRate": 0.38,
   "Market_Potential": 201499,
   "Urban_Rate": 0.14,
   "Local_Dominance": 1,
   "Voronoi_area_km_square": "5,970",
   "Lon": 2.935,
   "Lat": 11.131,
   "CitySize_category": "10~30",
   "Cluster_group": " Rural Town "
 },
 {
   "Agglomeration_ID": 22,
   "Names": "Dassa-Zoumé",
   "ISO3": "BEN",
   "City_Size": 27473,
   "GrowthRate": 0.43,
   "Market_Potential": 293738,
   "Urban_Rate": 0.29,
   "Local_Dominance": 0.3084,
   "Voronoi_area_km_square": "2,125",
   "Lon": 2.194,
   "Lat": 7.778,
   "CitySize_category": "10~30",
   "Cluster_group": " Rural Clusters "
 },
 {
   "Agglomeration_ID": 23,
   "Names": "Nikki",
   "ISO3": "BEN",
   "City_Size": 27187,
   "GrowthRate": 0.49,
   "Market_Potential": 236878,
   "Urban_Rate": 0.33,
   "Local_Dominance": 0.4567,
   "Voronoi_area_km_square": "1,729",
   "Lon": 3.207,
   "Lat": 9.923,
   "CitySize_category": "10~30",
   "Cluster_group": " Rural Clusters "
 },
 {
   "Agglomeration_ID": 24,
   "Names": "Ifangni",
   "ISO3": "BEN",
   "City_Size": 26980,
   "GrowthRate": 3.09,
   "Market_Potential": 1964073,
   "Urban_Rate": 0.66,
   "Local_Dominance": 0.0027,
   "Voronoi_area_km_square": "159",
   "Lon": 2.774,
   "Lat": 6.679,
   "CitySize_category": "10~30",
   "Cluster_group": " Satellite Town "
 },
 {
   "Agglomeration_ID": 25,
   "Names": "Avrankou",
   "ISO3": "BEN",
   "City_Size": 26841,
   "GrowthRate": 0.33,
   "Market_Potential": 2836661,
   "Urban_Rate": 0.8,
   "Local_Dominance": 0.0005,
   "Voronoi_area_km_square": "108",
   "Lon": 2.657,
   "Lat": 6.554,
   "CitySize_category": "10~30",
   "Cluster_group": " Satellite Town "
 },
 {
   "Agglomeration_ID": 26,
   "Names": "Sakete I",
   "ISO3": "BEN",
   "City_Size": 25765,
   "GrowthRate": 0.29,
   "Market_Potential": 1737437,
   "Urban_Rate": 0.58,
   "Local_Dominance": 0.0027,
   "Voronoi_area_km_square": "386",
   "Lon": 2.66,
   "Lat": 6.733,
   "CitySize_category": "10~30",
   "Cluster_group": " Satellite Town "
 },
 {
   "Agglomeration_ID": 27,
   "Names": "Glazoué",
   "ISO3": "BEN",
   "City_Size": 22455,
   "GrowthRate": 0.46,
   "Market_Potential": 322890,
   "Urban_Rate": 0.42,
   "Local_Dominance": 0.1283,
   "Voronoi_area_km_square": "785",
   "Lon": 2.246,
   "Lat": 7.981,
   "CitySize_category": "10~30",
   "Cluster_group": " Rural Clusters "
 },
 {
   "Agglomeration_ID": 28,
   "Names": "Doko-Centre",
   "ISO3": "BEN",
   "City_Size": 22300,
   "GrowthRate": 9.31,
   "Market_Potential": 1178215,
   "Urban_Rate": 0.15,
   "Local_Dominance": 0.1274,
   "Voronoi_area_km_square": "279",
   "Lon": 1.805,
   "Lat": 6.865,
   "CitySize_category": "10~30",
   "Cluster_group": " Rural Clusters "
 },
 {
   "Agglomeration_ID": 29,
   "Names": "Banikoara",
   "ISO3": "BEN",
   "City_Size": 20819,
   "GrowthRate": 0.49,
   "Market_Potential": 227509,
   "Urban_Rate": 0.27,
   "Local_Dominance": 0.4311,
   "Voronoi_area_km_square": "2,679",
   "Lon": 2.436,
   "Lat": 11.299,
   "CitySize_category": "10~30",
   "Cluster_group": " Rural Clusters "
 },
 {
   "Agglomeration_ID": 30,
   "Names": "Banté",
   "ISO3": "BEN",
   "City_Size": 20419,
   "GrowthRate": 0.48,
   "Market_Potential": 140529,
   "Urban_Rate": 0.36,
   "Local_Dominance": 0.4892,
   "Voronoi_area_km_square": "2,043",
   "Lon": 1.89,
   "Lat": 8.414,
   "CitySize_category": "10~30",
   "Cluster_group": " Rural Clusters "
 },
 {
   "Agglomeration_ID": 31,
   "Names": "Manigri Oké",
   "ISO3": "BEN",
   "City_Size": 19083,
   "GrowthRate": 1.1,
   "Market_Potential": 161084,
   "Urban_Rate": 0.57,
   "Local_Dominance": 0.1999,
   "Voronoi_area_km_square": "2,215",
   "Lon": 1.724,
   "Lat": 8.975,
   "CitySize_category": "10~30",
   "Cluster_group": " Rural Clusters "
 },
 {
   "Agglomeration_ID": 32,
   "Names": "Tanguiéta",
   "ISO3": "BEN",
   "City_Size": 18844,
   "GrowthRate": 0.41,
   "Market_Potential": 252685,
   "Urban_Rate": 0.28,
   "Local_Dominance": 0.1665,
   "Voronoi_area_km_square": "3,677",
   "Lon": 1.268,
   "Lat": 10.62,
   "CitySize_category": "10~30",
   "Cluster_group": " Rural Clusters "
 },
 {
   "Agglomeration_ID": 33,
   "Names": "Azové",
   "ISO3": "BEN",
   "City_Size": 18351,
   "GrowthRate": 2.73,
   "Market_Potential": 1050650,
   "Urban_Rate": 0.14,
   "Local_Dominance": 0.0958,
   "Voronoi_area_km_square": "802",
   "Lon": 1.702,
   "Lat": 6.947,
   "CitySize_category": "10~30",
   "Cluster_group": " Rural Clusters "
 },
 {
   "Agglomeration_ID": 34,
   "Names": "Partago",
   "ISO3": "BEN",
   "City_Size": 17699,
   "GrowthRate": 0.52,
   "Market_Potential": 229783,
   "Urban_Rate": 0.43,
   "Local_Dominance": 0.0654,
   "Voronoi_area_km_square": "2,532",
   "Lon": 1.902,
   "Lat": 9.539,
   "CitySize_category": "10~30",
   "Cluster_group": " Rural Clusters "
 },
 {
   "Agglomeration_ID": 35,
   "Names": "N'Dali",
   "ISO3": "BEN",
   "City_Size": 17544,
   "GrowthRate": 0.48,
   "Market_Potential": 183349,
   "Urban_Rate": 0.16,
   "Local_Dominance": 0.7059,
   "Voronoi_area_km_square": "2,377",
   "Lon": 2.724,
   "Lat": 9.862,
   "CitySize_category": "10~30",
   "Cluster_group": " Rural Town "
 },
 {
   "Agglomeration_ID": 36,
   "Names": "Agbozounkpa",
   "ISO3": "BEN",
   "City_Size": 17495,
   "GrowthRate": 0.77,
   "Market_Potential": 1095331,
   "Urban_Rate": 0.11,
   "Local_Dominance": 0.1168,
   "Voronoi_area_km_square": "942",
   "Lon": 2.269,
   "Lat": 6.927,
   "CitySize_category": "10~30",
   "Cluster_group": " Rural Clusters "
 },
 {
   "Agglomeration_ID": 37,
   "Names": "Tchatchou",
   "ISO3": "BEN",
   "City_Size": 16518,
   "GrowthRate": 0.48,
   "Market_Potential": 395033,
   "Urban_Rate": 0.58,
   "Local_Dominance": 0.007,
   "Voronoi_area_km_square": "2,114",
   "Lon": 2.558,
   "Lat": 9.123,
   "CitySize_category": "10~30",
   "Cluster_group": " Rural Clusters "
 },
 {
   "Agglomeration_ID": 38,
   "Names": "Tchaourou",
   "ISO3": "BEN",
   "City_Size": 16486,
   "GrowthRate": 1.63,
   "Market_Potential": 183978,
   "Urban_Rate": 0.18,
   "Local_Dominance": 0.499,
   "Voronoi_area_km_square": "2,521",
   "Lon": 2.598,
   "Lat": 8.887,
   "CitySize_category": "10~30",
   "Cluster_group": " Rural Clusters "
 },
 {
   "Agglomeration_ID": 39,
   "Names": "Sémé-Kpodji",
   "ISO3": "BEN",
   "City_Size": 16220,
   "GrowthRate": 0.38,
   "Market_Potential": 2684577,
   "Urban_Rate": 0.82,
   "Local_Dominance": 0.0002,
   "Voronoi_area_km_square": "40",
   "Lon": 2.595,
   "Lat": 6.38,
   "CitySize_category": "10~30",
   "Cluster_group": " Satellite Town "
 },
 {
   "Agglomeration_ID": 40,
   "Names": "Adovié",
   "ISO3": "BEN",
   "City_Size": 15629,
   "GrowthRate": 0.62,
   "Market_Potential": 2185944,
   "Urban_Rate": 0.66,
   "Local_Dominance": 0.0002,
   "Voronoi_area_km_square": "338",
   "Lon": 2.266,
   "Lat": 6.401,
   "CitySize_category": "10~30",
   "Cluster_group": " Satellite Town "
 },
 {
   "Agglomeration_ID": 41,
   "Names": "Klouekanmé",
   "ISO3": "BEN",
   "City_Size": 15624,
   "GrowthRate": 0.46,
   "Market_Potential": 1284714,
   "Urban_Rate": 0.23,
   "Local_Dominance": 0.006,
   "Voronoi_area_km_square": "699",
   "Lon": 1.843,
   "Lat": 6.978,
   "CitySize_category": "10~30",
   "Cluster_group": " Rural Clusters "
 },
 {
   "Agglomeration_ID": 42,
   "Names": "Allawénoussa I",
   "ISO3": "BEN",
   "City_Size": 15405,
   "GrowthRate": 1.22,
   "Market_Potential": 264041,
   "Urban_Rate": 0.39,
   "Local_Dominance": 0.0969,
   "Voronoi_area_km_square": "1,362",
   "Lon": 2.183,
   "Lat": 8.218,
   "CitySize_category": "10~30",
   "Cluster_group": " Rural Clusters "
 },
 {
   "Agglomeration_ID": 43,
   "Names": "Sékou Centre",
   "ISO3": "BEN",
   "City_Size": 15403,
   "GrowthRate": 2.68,
   "Market_Potential": 2185366,
   "Urban_Rate": 0.64,
   "Local_Dominance": 0.0002,
   "Voronoi_area_km_square": "440",
   "Lon": 2.225,
   "Lat": 6.635,
   "CitySize_category": "10~30",
   "Cluster_group": " Satellite Town "
 },
 {
   "Agglomeration_ID": 44,
   "Names": "Allada",
   "ISO3": "BEN",
   "City_Size": 15278,
   "GrowthRate": 0.5,
   "Market_Potential": 1553486,
   "Urban_Rate": 0.17,
   "Local_Dominance": 0.0378,
   "Voronoi_area_km_square": "424",
   "Lon": 2.144,
   "Lat": 6.67,
   "CitySize_category": "10~30",
   "Cluster_group": " Rural Clusters "
 },
 {
   "Agglomeration_ID": 45,
   "Names": "Founougo A",
   "ISO3": "BEN",
   "City_Size": 15155,
   "GrowthRate": 0.49,
   "Market_Potential": 191814,
   "Urban_Rate": 0.32,
   "Local_Dominance": 0.2284,
   "Voronoi_area_km_square": "6,468",
   "Lon": 2.532,
   "Lat": 11.482,
   "CitySize_category": "10~30",
   "Cluster_group": " Rural Clusters "
 },
 {
   "Agglomeration_ID": 46,
   "Names": "Donga",
   "ISO3": "BEN",
   "City_Size": 14833,
   "GrowthRate": 0.36,
   "Market_Potential": 208604,
   "Urban_Rate": 0.47,
   "Local_Dominance": 0.0459,
   "Voronoi_area_km_square": "2,415",
   "Lon": 2.019,
   "Lat": 9.741,
   "CitySize_category": "10~30",
   "Cluster_group": " Rural Clusters "
 },
 {
   "Agglomeration_ID": 47,
   "Names": "Ikpinlé",
   "ISO3": "BEN",
   "City_Size": 14757,
   "GrowthRate": 0.37,
   "Market_Potential": 1096103,
   "Urban_Rate": 0.3,
   "Local_Dominance": 0.0216,
   "Voronoi_area_km_square": "448",
   "Lon": 2.621,
   "Lat": 6.895,
   "CitySize_category": "10~30",
   "Cluster_group": " Rural Clusters "
 },
 {
   "Agglomeration_ID": 48,
   "Names": "Labogo Gbéto Comé",
   "ISO3": "BEN",
   "City_Size": 14692,
   "GrowthRate": 0.35,
   "Market_Potential": 1431626,
   "Urban_Rate": 0.23,
   "Local_Dominance": 0.0259,
   "Voronoi_area_km_square": "492",
   "Lon": 1.904,
   "Lat": 6.624,
   "CitySize_category": "10~30",
   "Cluster_group": " Rural Clusters "
 },
 {
   "Agglomeration_ID": 49,
   "Names": "Ahomey Gbékpa",
   "ISO3": "BEN",
   "City_Size": 14427,
   "GrowthRate": 0.53,
   "Market_Potential": 2829814,
   "Urban_Rate": 0.71,
   "Local_Dominance": 0.0001,
   "Voronoi_area_km_square": "167",
   "Lon": 2.407,
   "Lat": 6.543,
   "CitySize_category": "10~30",
   "Cluster_group": " Satellite Town "
 },
 {
   "Agglomeration_ID": 50,
   "Names": "Gamia Est",
   "ISO3": "BEN",
   "City_Size": 14343,
   "GrowthRate": 0.51,
   "Market_Potential": 177523,
   "Urban_Rate": 0.22,
   "Local_Dominance": 0.4191,
   "Voronoi_area_km_square": "4,066",
   "Lon": 2.731,
   "Lat": 10.401,
   "CitySize_category": "10~30",
   "Cluster_group": " Rural Clusters "
 },
 {
   "Agglomeration_ID": 51,
   "Names": "Pira Idi-Ogou",
   "ISO3": "BEN",
   "City_Size": 14072,
   "GrowthRate": 0.44,
   "Market_Potential": 147745,
   "Urban_Rate": 0.4,
   "Local_Dominance": 0.161,
   "Voronoi_area_km_square": "2,511",
   "Lon": 1.72,
   "Lat": 8.496,
   "CitySize_category": "10~30",
   "Cluster_group": " Rural Clusters "
 },
 {
   "Agglomeration_ID": 52,
   "Names": "Péhunco I",
   "ISO3": "BEN",
   "City_Size": 14021,
   "GrowthRate": 0.43,
   "Market_Potential": 145067,
   "Urban_Rate": 0.1,
   "Local_Dominance": 1,
   "Voronoi_area_km_square": "3,227",
   "Lon": 2,
   "Lat": 10.23,
   "CitySize_category": "10~30",
   "Cluster_group": " Rural Town "
 },
 {
   "Agglomeration_ID": 53,
   "Names": "Sé",
   "ISO3": "BEN",
   "City_Size": 13835,
   "GrowthRate": 0.3,
   "Market_Potential": 1294222,
   "Urban_Rate": 0.3,
   "Local_Dominance": 0.0199,
   "Voronoi_area_km_square": "205",
   "Lon": 1.826,
   "Lat": 6.51,
   "CitySize_category": "10~30",
   "Cluster_group": " Rural Clusters "
 },
 {
   "Agglomeration_ID": 54,
   "Names": "Ségbana I",
   "ISO3": "BEN",
   "City_Size": 13808,
   "GrowthRate": 0.55,
   "Market_Potential": 117834,
   "Urban_Rate": 0.12,
   "Local_Dominance": 1,
   "Voronoi_area_km_square": "5,376",
   "Lon": 3.698,
   "Lat": 10.928,
   "CitySize_category": "10~30",
   "Cluster_group": " Rural Town "
 },
 {
   "Agglomeration_ID": 55,
   "Names": "Bassila I",
   "ISO3": "BEN",
   "City_Size": 13646,
   "GrowthRate": 1.8,
   "Market_Potential": 184100,
   "Urban_Rate": 0.57,
   "Local_Dominance": 0.0931,
   "Voronoi_area_km_square": "774",
   "Lon": 1.664,
   "Lat": 9.01,
   "CitySize_category": "10~30",
   "Cluster_group": " Rural Clusters "
 },
 {
   "Agglomeration_ID": 56,
   "Names": "Kokey A",
   "ISO3": "BEN",
   "City_Size": 13570,
   "GrowthRate": 0.48,
   "Market_Potential": 217327,
   "Urban_Rate": 0.29,
   "Local_Dominance": 0.1832,
   "Voronoi_area_km_square": "544",
   "Lon": 2.527,
   "Lat": 11.383,
   "CitySize_category": "10~30",
   "Cluster_group": " Rural Clusters "
 },
 {
   "Agglomeration_ID": 57,
   "Names": "Houégbo Gare",
   "ISO3": "BEN",
   "City_Size": 13317,
   "GrowthRate": 0.53,
   "Market_Potential": 1009300,
   "Urban_Rate": 0.1,
   "Local_Dominance": 0.1188,
   "Voronoi_area_km_square": "622",
   "Lon": 2.173,
   "Lat": 6.807,
   "CitySize_category": "10~30",
   "Cluster_group": " Rural Clusters "
 },
 {
   "Agglomeration_ID": 58,
   "Names": "Aniviékomé",
   "ISO3": "BEN",
   "City_Size": 13131,
   "GrowthRate": 0.36,
   "Market_Potential": 2769038,
   "Urban_Rate": 0.76,
   "Local_Dominance": 0.0001,
   "Voronoi_area_km_square": "88",
   "Lon": 2.542,
   "Lat": 6.451,
   "CitySize_category": "10~30",
   "Cluster_group": " Satellite Town "
 },
 {
   "Agglomeration_ID": 59,
   "Names": "Glogbo",
   "ISO3": "BEN",
   "City_Size": 13114,
   "GrowthRate": 0.56,
   "Market_Potential": 2473044,
   "Urban_Rate": 0.9,
   "Local_Dominance": 0.0001,
   "Voronoi_area_km_square": "106",
   "Lon": 2.7,
   "Lat": 6.377,
   "CitySize_category": "10~30",
   "Cluster_group": " Satellite Town "
 },
 {
   "Agglomeration_ID": 60,
   "Names": "Sakabansi",
   "ISO3": "BEN",
   "City_Size": 12989,
   "GrowthRate": 0.48,
   "Market_Potential": 207932,
   "Urban_Rate": 0.28,
   "Local_Dominance": 0.1334,
   "Voronoi_area_km_square": "3,128",
   "Lon": 3.383,
   "Lat": 10.042,
   "CitySize_category": "10~30",
   "Cluster_group": " Rural Clusters "
 },
 {
   "Agglomeration_ID": 61,
   "Names": "Sékéré-Gando",
   "ISO3": "BEN",
   "City_Size": 12706,
   "GrowthRate": 0.48,
   "Market_Potential": 148782,
   "Urban_Rate": 0.33,
   "Local_Dominance": 0.2668,
   "Voronoi_area_km_square": "1,732",
   "Lon": 2.451,
   "Lat": 10.445,
   "CitySize_category": "10~30",
   "Cluster_group": " Rural Clusters "
 },
 {
   "Agglomeration_ID": 62,
   "Names": "Sompérékou-A",
   "ISO3": "BEN",
   "City_Size": 12575,
   "GrowthRate": 2.15,
   "Market_Potential": 229812,
   "Urban_Rate": 0.27,
   "Local_Dominance": 0.1573,
   "Voronoi_area_km_square": "580",
   "Lon": 2.493,
   "Lat": 11.323,
   "CitySize_category": "10~30",
   "Cluster_group": " Rural Clusters "
 },
 {
   "Agglomeration_ID": 63,
   "Names": "Houéyogbé",
   "ISO3": "BEN",
   "City_Size": 12121,
   "GrowthRate": 0.27,
   "Market_Potential": 1397325,
   "Urban_Rate": 0.25,
   "Local_Dominance": 0.0168,
   "Voronoi_area_km_square": "165",
   "Lon": 1.856,
   "Lat": 6.566,
   "CitySize_category": "10~30",
   "Cluster_group": " Rural Clusters "
 },
 {
   "Agglomeration_ID": 64,
   "Names": "Houédomey",
   "ISO3": "BEN",
   "City_Size": 11917,
   "GrowthRate": 0.28,
   "Market_Potential": 2888213,
   "Urban_Rate": 0.75,
   "Local_Dominance": 0.0001,
   "Voronoi_area_km_square": "158",
   "Lon": 2.494,
   "Lat": 6.587,
   "CitySize_category": "10~30",
   "Cluster_group": " Satellite Town "
 },
 {
   "Agglomeration_ID": 65,
   "Names": "Tchaada",
   "ISO3": "BEN",
   "City_Size": 11736,
   "GrowthRate": 4.89,
   "Market_Potential": 1416666,
   "Urban_Rate": 0.64,
   "Local_Dominance": 0.0006,
   "Voronoi_area_km_square": "115",
   "Lon": 2.69,
   "Lat": 6.596,
   "CitySize_category": "10~30",
   "Cluster_group": " Satellite Town "
 },
 {
   "Agglomeration_ID": 66,
   "Names": "Singré",
   "ISO3": "BEN",
   "City_Size": 11716,
   "GrowthRate": 0.4,
   "Market_Potential": 456035,
   "Urban_Rate": 0.27,
   "Local_Dominance": 0.0281,
   "Voronoi_area_km_square": "1,591",
   "Lon": 1.497,
   "Lat": 9.859,
   "CitySize_category": "10~30",
   "Cluster_group": " Rural Clusters "
 },
 {
   "Agglomeration_ID": 67,
   "Names": "Oké-Odan",
   "ISO3": "BEN",
   "City_Size": 11467,
   "GrowthRate": 0.33,
   "Market_Potential": 903533,
   "Urban_Rate": 0.19,
   "Local_Dominance": 0.0262,
   "Voronoi_area_km_square": "617",
   "Lon": 2.605,
   "Lat": 6.998,
   "CitySize_category": "10~30",
   "Cluster_group": " Rural Clusters "
 },
 {
   "Agglomeration_ID": 68,
   "Names": "Djérégbé",
   "ISO3": "BEN",
   "City_Size": 11416,
   "GrowthRate": 0.51,
   "Market_Potential": 2775782,
   "Urban_Rate": 0.81,
   "Local_Dominance": 0.0001,
   "Voronoi_area_km_square": "63",
   "Lon": 2.627,
   "Lat": 6.427,
   "CitySize_category": "10~30",
   "Cluster_group": " Satellite Town "
 },
 {
   "Agglomeration_ID": 69,
   "Names": "Sirarou",
   "ISO3": "BEN",
   "City_Size": 11325,
   "GrowthRate": 0.44,
   "Market_Potential": 369722,
   "Urban_Rate": 0.61,
   "Local_Dominance": 0.0033,
   "Voronoi_area_km_square": "2,011",
   "Lon": 2.648,
   "Lat": 9.591,
   "CitySize_category": "10~30",
   "Cluster_group": " Rural Clusters "
 },
 {
   "Agglomeration_ID": 70,
   "Names": "Garou II",
   "ISO3": "BEN",
   "City_Size": 11204,
   "GrowthRate": 0.53,
   "Market_Potential": 423217,
   "Urban_Rate": 0.36,
   "Local_Dominance": 0.0216,
   "Voronoi_area_km_square": "2,804",
   "Lon": 3.477,
   "Lat": 11.798,
   "CitySize_category": "10~30",
   "Cluster_group": " Rural Clusters "
 },
 {
   "Agglomeration_ID": 71,
   "Names": "Houinta",
   "ISO3": "BEN",
   "City_Size": 11172,
   "GrowthRate": 0.32,
   "Market_Potential": 2801206,
   "Urban_Rate": 0.76,
   "Local_Dominance": 0.0001,
   "Voronoi_area_km_square": "115",
   "Lon": 2.536,
   "Lat": 6.527,
   "CitySize_category": "10~30",
   "Cluster_group": " Satellite Town "
 },
 {
   "Agglomeration_ID": 72,
   "Names": "Ouaké",
   "ISO3": "BEN",
   "City_Size": 11169,
   "GrowthRate": 0.38,
   "Market_Potential": 684675,
   "Urban_Rate": 0.48,
   "Local_Dominance": 0.0051,
   "Voronoi_area_km_square": "437",
   "Lon": 1.368,
   "Lat": 9.674,
   "CitySize_category": "10~30",
   "Cluster_group": " Rural Clusters "
 },
 {
   "Agglomeration_ID": 73,
   "Names": "Gourou",
   "ISO3": "BEN",
   "City_Size": 11122,
   "GrowthRate": 0.44,
   "Market_Potential": 159183,
   "Urban_Rate": 0.31,
   "Local_Dominance": 0.2044,
   "Voronoi_area_km_square": "845",
   "Lon": 2.383,
   "Lat": 10.344,
   "CitySize_category": "10~30",
   "Cluster_group": " Rural Clusters "
 },
 {
   "Agglomeration_ID": 74,
   "Names": "Tchingayare (Semere)",
   "ISO3": "BEN",
   "City_Size": 10972,
   "GrowthRate": 0.34,
   "Market_Potential": 688327,
   "Urban_Rate": 0.5,
   "Local_Dominance": 0.0049,
   "Voronoi_area_km_square": "756",
   "Lon": 1.375,
   "Lat": 9.559,
   "CitySize_category": "10~30",
   "Cluster_group": " Rural Clusters "
 },
 {
   "Agglomeration_ID": 75,
   "Names": "Gbéko",
   "ISO3": "BEN",
   "City_Size": 10692,
   "GrowthRate": 0.39,
   "Market_Potential": 2900589,
   "Urban_Rate": 0.74,
   "Local_Dominance": 0.0001,
   "Voronoi_area_km_square": "382",
   "Lon": 2.447,
   "Lat": 6.609,
   "CitySize_category": "10~30",
   "Cluster_group": " Satellite Town "
 },
 {
   "Agglomeration_ID": 76,
   "Names": "Sikki Gourou",
   "ISO3": "BEN",
   "City_Size": 10691,
   "GrowthRate": 0.54,
   "Market_Potential": 165973,
   "Urban_Rate": 0.21,
   "Local_Dominance": 0.2861,
   "Voronoi_area_km_square": "1,795",
   "Lon": 2.387,
   "Lat": 10.18,
   "CitySize_category": "10~30",
   "Cluster_group": " Rural Clusters "
 },
 {
   "Agglomeration_ID": 77,
   "Names": "Kérou",
   "ISO3": "BEN",
   "City_Size": 10684,
   "GrowthRate": 0.41,
   "Market_Potential": 118065,
   "Urban_Rate": 0.09,
   "Local_Dominance": 1,
   "Voronoi_area_km_square": "5,687",
   "Lon": 2.108,
   "Lat": 10.821,
   "CitySize_category": "10~30",
   "Cluster_group": " Rural Town "
 },
 {
   "Agglomeration_ID": 78,
   "Names": "Idigny Centre",
   "ISO3": "BEN",
   "City_Size": 10533,
   "GrowthRate": 0.52,
   "Market_Potential": 376807,
   "Urban_Rate": 0.22,
   "Local_Dominance": 0.0533,
   "Voronoi_area_km_square": "1,305",
   "Lon": 2.715,
   "Lat": 7.477,
   "CitySize_category": "10~30",
   "Cluster_group": " Rural Clusters "
 },
 {
   "Agglomeration_ID": 79,
   "Names": "Djakotomey Centre",
   "ISO3": "BEN",
   "City_Size": 10386,
   "GrowthRate": 0.6,
   "Market_Potential": 1092404,
   "Urban_Rate": 0.15,
   "Local_Dominance": 0.0289,
   "Voronoi_area_km_square": "291",
   "Lon": 1.717,
   "Lat": 6.903,
   "CitySize_category": "10~30",
   "Cluster_group": " Rural Clusters "
 },
 {
   "Agglomeration_ID": 80,
   "Names": "Odougba",
   "ISO3": "BEN",
   "City_Size": 10164,
   "GrowthRate": 0.5,
   "Market_Potential": 162167,
   "Urban_Rate": 0.37,
   "Local_Dominance": 0.0679,
   "Voronoi_area_km_square": "1,601",
   "Lon": 2.405,
   "Lat": 8.5,
   "CitySize_category": "10~30",
   "Cluster_group": " Rural Clusters "
 },
 {
   "Agglomeration_ID": 81,
   "Names": "Matéri",
   "ISO3": "BEN",
   "City_Size": 10055,
   "GrowthRate": 0.43,
   "Market_Potential": 266453,
   "Urban_Rate": 0.11,
   "Local_Dominance": 0.2216,
   "Voronoi_area_km_square": "3,067",
   "Lon": 1.063,
   "Lat": 10.694,
   "CitySize_category": "10~30",
   "Cluster_group": " Rural Clusters "
 },
 {
   "Agglomeration_ID": 171,
   "Names": "Ouagadougou",
   "ISO3": "BFA",
   "City_Size": 1907666,
   "GrowthRate": 0.98,
   "Market_Potential": 2448155,
   "Urban_Rate": 0.8,
   "Local_Dominance": 0.9996,
   "Voronoi_area_km_square": "1,376",
   "Lon": -1.526,
   "Lat": 12.362,
   "CitySize_category": "1000~2000",
   "Cluster_group": " Global African Cities "
 },
 {
   "Agglomeration_ID": 172,
   "Names": "Bobo-Dioulasso",
   "ISO3": "BFA",
   "City_Size": 564806,
   "GrowthRate": 0.55,
   "Market_Potential": 809537,
   "Urban_Rate": 0.74,
   "Local_Dominance": 0.9969,
   "Voronoi_area_km_square": "3,289",
   "Lon": -4.299,
   "Lat": 11.175,
   "CitySize_category": "350~1000",
   "Cluster_group": " Regional Cities "
 },
 {
   "Agglomeration_ID": 173,
   "Names": "Koudougou",
   "ISO3": "BFA",
   "City_Size": 94107,
   "GrowthRate": 0.21,
   "Market_Potential": 594008,
   "Urban_Rate": 0.32,
   "Local_Dominance": 0.8343,
   "Voronoi_area_km_square": "710",
   "Lon": -2.346,
   "Lat": 12.246,
   "CitySize_category": "30~100",
   "Cluster_group": " Local Cities "
 },
 {
   "Agglomeration_ID": 174,
   "Names": "Banfora",
   "ISO3": "BFA",
   "City_Size": 86653,
   "GrowthRate": 0.5,
   "Market_Potential": 309156,
   "Urban_Rate": 0.32,
   "Local_Dominance": 0.9844,
   "Voronoi_area_km_square": "3,057",
   "Lon": -4.762,
   "Lat": 10.641,
   "CitySize_category": "30~100",
   "Cluster_group": " Local Cities "
 },
 {
   "Agglomeration_ID": 175,
   "Names": "Ouahigouya",
   "ISO3": "BFA",
   "City_Size": 81478,
   "GrowthRate": 0.38,
   "Market_Potential": 494925,
   "Urban_Rate": 0.16,
   "Local_Dominance": 1,
   "Voronoi_area_km_square": "4,228",
   "Lon": -2.417,
   "Lat": 13.583,
   "CitySize_category": "30~100",
   "Cluster_group": " Local Cities "
 },
 {
   "Agglomeration_ID": 176,
   "Names": "Pouytenga",
   "ISO3": "BFA",
   "City_Size": 71235,
   "GrowthRate": 0.65,
   "Market_Potential": 566156,
   "Urban_Rate": 0.22,
   "Local_Dominance": 0.7547,
   "Voronoi_area_km_square": "1,140",
   "Lon": -0.427,
   "Lat": 12.247,
   "CitySize_category": "30~100",
   "Cluster_group": " Local Cities "
 },
 {
   "Agglomeration_ID": 177,
   "Names": "Kaya",
   "ISO3": "BFA",
   "City_Size": 62879,
   "GrowthRate": 0.57,
   "Market_Potential": 494839,
   "Urban_Rate": 0.23,
   "Local_Dominance": 0.8549,
   "Voronoi_area_km_square": "1,212",
   "Lon": -1.079,
   "Lat": 13.083,
   "CitySize_category": "30~100",
   "Cluster_group": " Local Cities "
 },
 {
   "Agglomeration_ID": 178,
   "Names": "Tenkodogo",
   "ISO3": "BFA",
   "City_Size": 49681,
   "GrowthRate": 0.4,
   "Market_Potential": 543813,
   "Urban_Rate": 0.19,
   "Local_Dominance": 0.5927,
   "Voronoi_area_km_square": "1,678",
   "Lon": -0.359,
   "Lat": 11.788,
   "CitySize_category": "30~100",
   "Cluster_group": " Local Cities "
 },
 {
   "Agglomeration_ID": 179,
   "Names": "Hounde",
   "ISO3": "BFA",
   "City_Size": 47557,
   "GrowthRate": 0.77,
   "Market_Potential": 257252,
   "Urban_Rate": 0.18,
   "Local_Dominance": 1,
   "Voronoi_area_km_square": "6,281",
   "Lon": -3.526,
   "Lat": 11.498,
   "CitySize_category": "30~100",
   "Cluster_group": " Rural Town "
 },
 {
   "Agglomeration_ID": 180,
   "Names": "Fada-N'Gourma",
   "ISO3": "BFA",
   "City_Size": 46797,
   "GrowthRate": 0.41,
   "Market_Potential": 219241,
   "Urban_Rate": 0.26,
   "Local_Dominance": 0.9548,
   "Voronoi_area_km_square": "10,788",
   "Lon": 0.344,
   "Lat": 12.069,
   "CitySize_category": "30~100",
   "Cluster_group": " Rural Town "
 },
 {
   "Agglomeration_ID": 181,
   "Names": "Dedougou",
   "ISO3": "BFA",
   "City_Size": 40729,
   "GrowthRate": 0.15,
   "Market_Potential": 223237,
   "Urban_Rate": 0.18,
   "Local_Dominance": 1,
   "Voronoi_area_km_square": "5,122",
   "Lon": -3.457,
   "Lat": 12.482,
   "CitySize_category": "30~100",
   "Cluster_group": " Rural Town "
 },
 {
   "Agglomeration_ID": 182,
   "Names": "Garango",
   "ISO3": "BFA",
   "City_Size": 37568,
   "GrowthRate": 0.23,
   "Market_Potential": 531920,
   "Urban_Rate": 0.27,
   "Local_Dominance": 0.276,
   "Voronoi_area_km_square": "891",
   "Lon": -0.549,
   "Lat": 11.804,
   "CitySize_category": "30~100",
   "Cluster_group": " Rural Clusters "
 },
 {
   "Agglomeration_ID": 183,
   "Names": "Koupela",
   "ISO3": "BFA",
   "City_Size": 34399,
   "GrowthRate": 0.65,
   "Market_Potential": 581824,
   "Urban_Rate": 0.22,
   "Local_Dominance": 0.176,
   "Voronoi_area_km_square": "2,361",
   "Lon": -0.352,
   "Lat": 12.175,
   "CitySize_category": "30~100",
   "Cluster_group": " Rural Clusters "
 },
 {
   "Agglomeration_ID": 184,
   "Names": "Djibo",
   "ISO3": "BFA",
   "City_Size": 32568,
   "GrowthRate": 0.42,
   "Market_Potential": 204951,
   "Urban_Rate": 0.16,
   "Local_Dominance": 1,
   "Voronoi_area_km_square": "7,333",
   "Lon": -1.628,
   "Lat": 14.102,
   "CitySize_category": "30~100",
   "Cluster_group": " Rural Town "
 },
 {
   "Agglomeration_ID": 185,
   "Names": "Bama",
   "ISO3": "BFA",
   "City_Size": 31676,
   "GrowthRate": 2.32,
   "Market_Potential": 813989,
   "Urban_Rate": 0.75,
   "Local_Dominance": 0.0031,
   "Voronoi_area_km_square": "2,115",
   "Lon": -4.42,
   "Lat": 11.383,
   "CitySize_category": "30~100",
   "Cluster_group": " Satellite Town "
 },
 {
   "Agglomeration_ID": 186,
   "Names": "Reo",
   "ISO3": "BFA",
   "City_Size": 31057,
   "GrowthRate": 0.26,
   "Market_Potential": 536026,
   "Urban_Rate": 0.31,
   "Local_Dominance": 0.0934,
   "Voronoi_area_km_square": "528",
   "Lon": -2.473,
   "Lat": 12.32,
   "CitySize_category": "30~100",
   "Cluster_group": " Rural Clusters "
 },
 {
   "Agglomeration_ID": 187,
   "Names": "Leo",
   "ISO3": "BFA",
   "City_Size": 29881,
   "GrowthRate": 0.39,
   "Market_Potential": 179139,
   "Urban_Rate": 0.23,
   "Local_Dominance": 0.8877,
   "Voronoi_area_km_square": "2,942",
   "Lon": -2.103,
   "Lat": 11.099,
   "CitySize_category": "10~30",
   "Cluster_group": " Rural Town "
 },
 {
   "Agglomeration_ID": 188,
   "Names": "Gaoua",
   "ISO3": "BFA",
   "City_Size": 28663,
   "GrowthRate": 0.5,
   "Market_Potential": 227502,
   "Urban_Rate": 0.13,
   "Local_Dominance": 1,
   "Voronoi_area_km_square": "7,828",
   "Lon": -3.179,
   "Lat": 10.337,
   "CitySize_category": "10~30",
   "Cluster_group": " Rural Town "
 },
 {
   "Agglomeration_ID": 189,
   "Names": "Kongoussi",
   "ISO3": "BFA",
   "City_Size": 28067,
   "GrowthRate": 0.39,
   "Market_Potential": 407444,
   "Urban_Rate": 0.1,
   "Local_Dominance": 0.8439,
   "Voronoi_area_km_square": "3,081",
   "Lon": -1.536,
   "Lat": 13.337,
   "CitySize_category": "10~30",
   "Cluster_group": " Rural Town "
 },
 {
   "Agglomeration_ID": 190,
   "Names": "Gourcy",
   "ISO3": "BFA",
   "City_Size": 28003,
   "GrowthRate": 0.48,
   "Market_Potential": 491837,
   "Urban_Rate": 0.11,
   "Local_Dominance": 0.5708,
   "Voronoi_area_km_square": "2,425",
   "Lon": -2.357,
   "Lat": 13.206,
   "CitySize_category": "10~30",
   "Cluster_group": " Rural Clusters "
 },
 {
   "Agglomeration_ID": 191,
   "Names": "Beguedo",
   "ISO3": "BFA",
   "City_Size": 27801,
   "GrowthRate": 0.35,
   "Market_Potential": 474228,
   "Urban_Rate": 0.25,
   "Local_Dominance": 0.2463,
   "Voronoi_area_km_square": "709",
   "Lon": -0.74,
   "Lat": 11.788,
   "CitySize_category": "10~30",
   "Cluster_group": " Rural Clusters "
 },
 {
   "Agglomeration_ID": 192,
   "Names": "Po",
   "ISO3": "BFA",
   "City_Size": 27182,
   "GrowthRate": 0.4,
   "Market_Potential": 309220,
   "Urban_Rate": 0.15,
   "Local_Dominance": 0.6958,
   "Voronoi_area_km_square": "3,065",
   "Lon": -1.134,
   "Lat": 11.171,
   "CitySize_category": "10~30",
   "Cluster_group": " Rural Town "
 },
 {
   "Agglomeration_ID": 193,
   "Names": "Niangoloko",
   "ISO3": "BFA",
   "City_Size": 26393,
   "GrowthRate": 0.69,
   "Market_Potential": 210459,
   "Urban_Rate": 0.18,
   "Local_Dominance": 0.854,
   "Voronoi_area_km_square": "5,913",
   "Lon": -4.913,
   "Lat": 10.282,
   "CitySize_category": "10~30",
   "Cluster_group": " Rural Town "
 },
 {
   "Agglomeration_ID": 194,
   "Names": "Kombissiri",
   "ISO3": "BFA",
   "City_Size": 26092,
   "GrowthRate": 0.38,
   "Market_Potential": 288156,
   "Urban_Rate": 0.09,
   "Local_Dominance": 1,
   "Voronoi_area_km_square": "2,892",
   "Lon": -1.334,
   "Lat": 12.064,
   "CitySize_category": "10~30",
   "Cluster_group": " Rural Town "
 },
 {
   "Agglomeration_ID": 195,
   "Names": "Orodara",
   "ISO3": "BFA",
   "City_Size": 26052,
   "GrowthRate": 0.39,
   "Market_Potential": 236566,
   "Urban_Rate": 0.11,
   "Local_Dominance": 1,
   "Voronoi_area_km_square": "4,405",
   "Lon": -4.913,
   "Lat": 10.985,
   "CitySize_category": "10~30",
   "Cluster_group": " Rural Town "
 },
 {
   "Agglomeration_ID": 196,
   "Names": "Yako",
   "ISO3": "BFA",
   "City_Size": 24280,
   "GrowthRate": 0.22,
   "Market_Potential": 506526,
   "Urban_Rate": 0.1,
   "Local_Dominance": 0.4292,
   "Voronoi_area_km_square": "2,661",
   "Lon": -2.26,
   "Lat": 12.956,
   "CitySize_category": "10~30",
   "Cluster_group": " Rural Clusters "
 },
 {
   "Agglomeration_ID": 197,
   "Names": "Bittou",
   "ISO3": "BFA",
   "City_Size": 24214,
   "GrowthRate": 0.79,
   "Market_Potential": 551009,
   "Urban_Rate": 0.28,
   "Local_Dominance": 0.1104,
   "Voronoi_area_km_square": "1,255",
   "Lon": -0.309,
   "Lat": 11.254,
   "CitySize_category": "10~30",
   "Cluster_group": " Rural Clusters "
 },
 {
   "Agglomeration_ID": 198,
   "Names": "Nouna",
   "ISO3": "BFA",
   "City_Size": 23302,
   "GrowthRate": 0.16,
   "Market_Potential": 208309,
   "Urban_Rate": 0.11,
   "Local_Dominance": 1,
   "Voronoi_area_km_square": "7,003",
   "Lon": -3.86,
   "Lat": 12.733,
   "CitySize_category": "10~30",
   "Cluster_group": " Rural Town "
 },
 {
   "Agglomeration_ID": 199,
   "Names": "Dori",
   "ISO3": "BFA",
   "City_Size": 23050,
   "GrowthRate": 0.31,
   "Market_Potential": 220577,
   "Urban_Rate": 0.1,
   "Local_Dominance": 1,
   "Voronoi_area_km_square": "5,319",
   "Lon": -0.026,
   "Lat": 14.037,
   "CitySize_category": "10~30",
   "Cluster_group": " Rural Town "
 },
 {
   "Agglomeration_ID": 200,
   "Names": "Manga",
   "ISO3": "BFA",
   "City_Size": 22182,
   "GrowthRate": 0.4,
   "Market_Potential": 341878,
   "Urban_Rate": 0.19,
   "Local_Dominance": 0.3413,
   "Voronoi_area_km_square": "2,581",
   "Lon": -1.07,
   "Lat": 11.664,
   "CitySize_category": "10~30",
   "Cluster_group": " Rural Clusters "
 },
 {
   "Agglomeration_ID": 201,
   "Names": "Ziniare",
   "ISO3": "BFA",
   "City_Size": 21783,
   "GrowthRate": 0.63,
   "Market_Potential": 2106016,
   "Urban_Rate": 0.92,
   "Local_Dominance": 0.0001,
   "Voronoi_area_km_square": "2,463",
   "Lon": -1.297,
   "Lat": 12.587,
   "CitySize_category": "10~30",
   "Cluster_group": " Satellite Town "
 },
 {
   "Agglomeration_ID": 202,
   "Names": "Zorgho",
   "ISO3": "BFA",
   "City_Size": 21578,
   "GrowthRate": 0.17,
   "Market_Potential": 566524,
   "Urban_Rate": 0.26,
   "Local_Dominance": 0.0653,
   "Voronoi_area_km_square": "1,094",
   "Lon": -0.62,
   "Lat": 12.248,
   "CitySize_category": "10~30",
   "Cluster_group": " Rural Clusters "
 },
 {
   "Agglomeration_ID": 203,
   "Names": "Titao",
   "ISO3": "BFA",
   "City_Size": 21161,
   "GrowthRate": 0.35,
   "Market_Potential": 347035,
   "Urban_Rate": 0.12,
   "Local_Dominance": 0.5346,
   "Voronoi_area_km_square": "2,846",
   "Lon": -2.067,
   "Lat": 13.77,
   "CitySize_category": "10~30",
   "Cluster_group": " Rural Clusters "
 },
 {
   "Agglomeration_ID": 204,
   "Names": "Diebougou",
   "ISO3": "BFA",
   "City_Size": 20528,
   "GrowthRate": 0.51,
   "Market_Potential": 279859,
   "Urban_Rate": 0.14,
   "Local_Dominance": 0.5264,
   "Voronoi_area_km_square": "3,984",
   "Lon": -3.243,
   "Lat": 10.976,
   "CitySize_category": "10~30",
   "Cluster_group": " Rural Clusters "
 },
 {
   "Agglomeration_ID": 205,
   "Names": "Boulsa",
   "ISO3": "BFA",
   "City_Size": 20201,
   "GrowthRate": 0.44,
   "Market_Potential": 385510,
   "Urban_Rate": 0.05,
   "Local_Dominance": 1,
   "Voronoi_area_km_square": "2,939",
   "Lon": -0.57,
   "Lat": 12.646,
   "CitySize_category": "10~30",
   "Cluster_group": " Rural Town "
 },
 {
   "Agglomeration_ID": 206,
   "Names": "Mogtedo",
   "ISO3": "BFA",
   "City_Size": 20178,
   "GrowthRate": 0.37,
   "Market_Potential": 387172,
   "Urban_Rate": 0.11,
   "Local_Dominance": 0.4665,
   "Voronoi_area_km_square": "2,270",
   "Lon": -0.837,
   "Lat": 12.281,
   "CitySize_category": "10~30",
   "Cluster_group": " Rural Clusters "
 },
 {
   "Agglomeration_ID": 207,
   "Names": "Solenzo",
   "ISO3": "BFA",
   "City_Size": 19864,
   "GrowthRate": 0.67,
   "Market_Potential": 263814,
   "Urban_Rate": 0.12,
   "Local_Dominance": 0.7212,
   "Voronoi_area_km_square": "3,701",
   "Lon": -4.084,
   "Lat": 12.178,
   "CitySize_category": "10~30",
   "Cluster_group": " Rural Town "
 },
 {
   "Agglomeration_ID": 208,
   "Names": "Seguenega",
   "ISO3": "BFA",
   "City_Size": 19744,
   "GrowthRate": 0.25,
   "Market_Potential": 443611,
   "Urban_Rate": 0.12,
   "Local_Dominance": 0.3965,
   "Voronoi_area_km_square": "2,179",
   "Lon": -1.964,
   "Lat": 13.438,
   "CitySize_category": "10~30",
   "Cluster_group": " Rural Clusters "
 },
 {
   "Agglomeration_ID": 209,
   "Names": "Dano",
   "ISO3": "BFA",
   "City_Size": 19471,
   "GrowthRate": 0.5,
   "Market_Potential": 321220,
   "Urban_Rate": 0.12,
   "Local_Dominance": 0.4736,
   "Voronoi_area_km_square": "3,863",
   "Lon": -3.064,
   "Lat": 11.143,
   "CitySize_category": "10~30",
   "Cluster_group": " Rural Clusters "
 },
 {
   "Agglomeration_ID": 210,
   "Names": "Natiaboani",
   "ISO3": "BFA",
   "City_Size": 18586,
   "GrowthRate": 1.33,
   "Market_Potential": 107166,
   "Urban_Rate": 0.37,
   "Local_Dominance": 0.6032,
   "Voronoi_area_km_square": "3,824",
   "Lon": 0.505,
   "Lat": 11.702,
   "CitySize_category": "10~30",
   "Cluster_group": " Rural Clusters "
 },
 {
   "Agglomeration_ID": 211,
   "Names": "Bousse",
   "ISO3": "BFA",
   "City_Size": 18088,
   "GrowthRate": 0.49,
   "Market_Potential": 491083,
   "Urban_Rate": 0.06,
   "Local_Dominance": 0.6877,
   "Voronoi_area_km_square": "2,810",
   "Lon": -1.894,
   "Lat": 12.662,
   "CitySize_category": "10~30",
   "Cluster_group": " Rural Clusters "
 },
 {
   "Agglomeration_ID": 212,
   "Names": "Tougan",
   "ISO3": "BFA",
   "City_Size": 17722,
   "GrowthRate": 0.12,
   "Market_Potential": 244484,
   "Urban_Rate": 0.17,
   "Local_Dominance": 0.5002,
   "Voronoi_area_km_square": "4,171",
   "Lon": -3.068,
   "Lat": 13.071,
   "CitySize_category": "10~30",
   "Cluster_group": " Rural Clusters "
 },
 {
   "Agglomeration_ID": 213,
   "Names": "Korsimoro",
   "ISO3": "BFA",
   "City_Size": 17545,
   "GrowthRate": 0.32,
   "Market_Potential": 521605,
   "Urban_Rate": 0.22,
   "Local_Dominance": 0.0635,
   "Voronoi_area_km_square": "1,439",
   "Lon": -1.068,
   "Lat": 12.825,
   "CitySize_category": "10~30",
   "Cluster_group": " Rural Clusters "
 },
 {
   "Agglomeration_ID": 214,
   "Names": "Bogande",
   "ISO3": "BFA",
   "City_Size": 17457,
   "GrowthRate": 0.63,
   "Market_Potential": 347855,
   "Urban_Rate": 0.05,
   "Local_Dominance": 1,
   "Voronoi_area_km_square": "9,642",
   "Lon": -0.147,
   "Lat": 12.971,
   "CitySize_category": "10~30",
   "Cluster_group": " Rural Town "
 },
 {
   "Agglomeration_ID": 215,
   "Names": "Sapouy",
   "ISO3": "BFA",
   "City_Size": 17169,
   "GrowthRate": 1.95,
   "Market_Potential": 170120,
   "Urban_Rate": 0.1,
   "Local_Dominance": 1,
   "Voronoi_area_km_square": "4,456",
   "Lon": -1.77,
   "Lat": 11.55,
   "CitySize_category": "10~30",
   "Cluster_group": " Rural Town "
 },
 {
   "Agglomeration_ID": 216,
   "Names": "Bagre",
   "ISO3": "BFA",
   "City_Size": 16881,
   "GrowthRate": 0.09,
   "Market_Potential": 494321,
   "Urban_Rate": 0.41,
   "Local_Dominance": 0.0461,
   "Voronoi_area_km_square": "1,177",
   "Lon": -0.523,
   "Lat": 11.501,
   "CitySize_category": "10~30",
   "Cluster_group": " Rural Clusters "
 },
 {
   "Agglomeration_ID": 217,
   "Names": "Zabre",
   "ISO3": "BFA",
   "City_Size": 16055,
   "GrowthRate": 0.25,
   "Market_Potential": 484458,
   "Urban_Rate": 0.15,
   "Local_Dominance": 0.1906,
   "Voronoi_area_km_square": "1,760",
   "Lon": -0.626,
   "Lat": 11.181,
   "CitySize_category": "10~30",
   "Cluster_group": " Rural Clusters "
 },
 {
   "Agglomeration_ID": 218,
   "Names": "Boromo",
   "ISO3": "BFA",
   "City_Size": 15893,
   "GrowthRate": 0.29,
   "Market_Potential": 220112,
   "Urban_Rate": 0.07,
   "Local_Dominance": 1,
   "Voronoi_area_km_square": "4,976",
   "Lon": -2.935,
   "Lat": 11.748,
   "CitySize_category": "10~30",
   "Cluster_group": " Rural Town "
 },
 {
   "Agglomeration_ID": 219,
   "Names": "Yalgo",
   "ISO3": "BFA",
   "City_Size": 15359,
   "GrowthRate": 0.21,
   "Market_Potential": 237807,
   "Urban_Rate": 0.06,
   "Local_Dominance": 1,
   "Voronoi_area_km_square": "6,005",
   "Lon": -0.267,
   "Lat": 13.591,
   "CitySize_category": "10~30",
   "Cluster_group": " Rural Town "
 },
 {
   "Agglomeration_ID": 220,
   "Names": "Kokologho",
   "ISO3": "BFA",
   "City_Size": 15028,
   "GrowthRate": 0.18,
   "Market_Potential": 945650,
   "Urban_Rate": 0.06,
   "Local_Dominance": 0.2951,
   "Voronoi_area_km_square": "1,976",
   "Lon": -1.873,
   "Lat": 12.194,
   "CitySize_category": "10~30",
   "Cluster_group": " Rural Clusters "
 },
 {
   "Agglomeration_ID": 221,
   "Names": "Villy",
   "ISO3": "BFA",
   "City_Size": 15019,
   "GrowthRate": 0.44,
   "Market_Potential": 620572,
   "Urban_Rate": 0.29,
   "Local_Dominance": 0.0213,
   "Voronoi_area_km_square": "953",
   "Lon": -2.202,
   "Lat": 12.282,
   "CitySize_category": "10~30",
   "Cluster_group": " Rural Clusters "
 },
 {
   "Agglomeration_ID": 222,
   "Names": "Gonboussou",
   "ISO3": "BFA",
   "City_Size": 14939,
   "GrowthRate": 2.54,
   "Market_Potential": 334905,
   "Urban_Rate": 0.18,
   "Local_Dominance": 0.2367,
   "Voronoi_area_km_square": "1,321",
   "Lon": -0.773,
   "Lat": 11.43,
   "CitySize_category": "10~30",
   "Cluster_group": " Rural Clusters "
 },
 {
   "Agglomeration_ID": 223,
   "Names": "Namponkore",
   "ISO3": "BFA",
   "City_Size": 14399,
   "GrowthRate": 0.77,
   "Market_Potential": 226040,
   "Urban_Rate": 0.06,
   "Local_Dominance": 1,
   "Voronoi_area_km_square": "16,684",
   "Lon": 1.792,
   "Lat": 11.749,
   "CitySize_category": "10~30",
   "Cluster_group": " Rural Town "
 },
 {
   "Agglomeration_ID": 224,
   "Names": "Kouka",
   "ISO3": "BFA",
   "City_Size": 13737,
   "GrowthRate": 0.21,
   "Market_Potential": 291625,
   "Urban_Rate": 0.09,
   "Local_Dominance": 0.553,
   "Voronoi_area_km_square": "2,157",
   "Lon": -4.336,
   "Lat": 11.905,
   "CitySize_category": "10~30",
   "Cluster_group": " Rural Clusters "
 },
 {
   "Agglomeration_ID": 225,
   "Names": "Toma",
   "ISO3": "BFA",
   "City_Size": 13731,
   "GrowthRate": 0.36,
   "Market_Potential": 257188,
   "Urban_Rate": 0.12,
   "Local_Dominance": 0.3751,
   "Voronoi_area_km_square": "3,623",
   "Lon": -2.891,
   "Lat": 12.763,
   "CitySize_category": "10~30",
   "Cluster_group": " Rural Clusters "
 },
 {
   "Agglomeration_ID": 226,
   "Names": "Niaogho",
   "ISO3": "BFA",
   "City_Size": 13297,
   "GrowthRate": 0.26,
   "Market_Potential": 451461,
   "Urban_Rate": 0.29,
   "Local_Dominance": 0.0526,
   "Voronoi_area_km_square": "855",
   "Lon": -0.766,
   "Lat": 11.767,
   "CitySize_category": "10~30",
   "Cluster_group": " Rural Clusters "
 },
 {
   "Agglomeration_ID": 227,
   "Names": "Dande",
   "ISO3": "BFA",
   "City_Size": 13273,
   "GrowthRate": 0.56,
   "Market_Potential": 291215,
   "Urban_Rate": 0.19,
   "Local_Dominance": 0.1374,
   "Voronoi_area_km_square": "1,344",
   "Lon": -4.555,
   "Lat": 11.583,
   "CitySize_category": "10~30",
   "Cluster_group": " Rural Clusters "
 },
 {
   "Agglomeration_ID": 228,
   "Names": "Imasgho",
   "ISO3": "BFA",
   "City_Size": 13115,
   "GrowthRate": 0.29,
   "Market_Potential": 604444,
   "Urban_Rate": 0.29,
   "Local_Dominance": 0.0164,
   "Voronoi_area_km_square": "1,381",
   "Lon": -2.329,
   "Lat": 12.434,
   "CitySize_category": "10~30",
   "Cluster_group": " Rural Clusters "
 },
 {
   "Agglomeration_ID": 229,
   "Names": "Tanghin-Dassouri",
   "ISO3": "BFA",
   "City_Size": 12860,
   "GrowthRate": 0.3,
   "Market_Potential": 2396167,
   "Urban_Rate": 0.81,
   "Local_Dominance": 0,
   "Voronoi_area_km_square": "1,108",
   "Lon": -1.716,
   "Lat": 12.271,
   "CitySize_category": "10~30",
   "Cluster_group": " Satellite Town "
 },
 {
   "Agglomeration_ID": 230,
   "Names": "Cinkanse",
   "ISO3": "BFA",
   "City_Size": 12709,
   "GrowthRate": 0.6,
   "Market_Potential": 770331,
   "Urban_Rate": 0.23,
   "Local_Dominance": 0.0201,
   "Voronoi_area_km_square": "791",
   "Lon": 0.013,
   "Lat": 11.105,
   "CitySize_category": "10~30",
   "Cluster_group": " Rural Clusters "
 },
 {
   "Agglomeration_ID": 231,
   "Names": "Bena",
   "ISO3": "BFA",
   "City_Size": 12351,
   "GrowthRate": 0.2,
   "Market_Potential": 291070,
   "Urban_Rate": 0.16,
   "Local_Dominance": 0.2073,
   "Voronoi_area_km_square": "1,546",
   "Lon": -4.19,
   "Lat": 12.075,
   "CitySize_category": "10~30",
   "Cluster_group": " Rural Clusters "
 },
 {
   "Agglomeration_ID": 232,
   "Names": "Kindi",
   "ISO3": "BFA",
   "City_Size": 12189,
   "GrowthRate": 0.25,
   "Market_Potential": 587191,
   "Urban_Rate": 0.31,
   "Local_Dominance": 0.0147,
   "Voronoi_area_km_square": "1,035",
   "Lon": -2.038,
   "Lat": 12.438,
   "CitySize_category": "10~30",
   "Cluster_group": " Rural Clusters "
 },
 {
   "Agglomeration_ID": 233,
   "Names": "Rollo",
   "ISO3": "BFA",
   "City_Size": 12069,
   "GrowthRate": 2.43,
   "Market_Potential": 365296,
   "Urban_Rate": 0.16,
   "Local_Dominance": 0.1101,
   "Voronoi_area_km_square": "2,197",
   "Lon": -1.704,
   "Lat": 13.603,
   "CitySize_category": "10~30",
   "Cluster_group": " Rural Clusters "
 },
 {
   "Agglomeration_ID": 234,
   "Names": "Batie",
   "ISO3": "BFA",
   "City_Size": 11917,
   "GrowthRate": 0.67,
   "Market_Potential": 173686,
   "Urban_Rate": 0.07,
   "Local_Dominance": 1,
   "Voronoi_area_km_square": "5,347",
   "Lon": -2.919,
   "Lat": 9.877,
   "CitySize_category": "10~30",
   "Cluster_group": " Rural Town "
 },
 {
   "Agglomeration_ID": 235,
   "Names": "Tita",
   "ISO3": "BFA",
   "City_Size": 11879,
   "GrowthRate": 1.74,
   "Market_Potential": 339914,
   "Urban_Rate": 0.31,
   "Local_Dominance": 0.0157,
   "Voronoi_area_km_square": "2,804",
   "Lon": -2.512,
   "Lat": 11.928,
   "CitySize_category": "10~30",
   "Cluster_group": " Rural Clusters "
 },
 {
   "Agglomeration_ID": 236,
   "Names": "Deregoue I",
   "ISO3": "BFA",
   "City_Size": 11591,
   "GrowthRate": 4.11,
   "Market_Potential": 173803,
   "Urban_Rate": 0.07,
   "Local_Dominance": 1,
   "Voronoi_area_km_square": "9,011",
   "Lon": -4.085,
   "Lat": 10.752,
   "CitySize_category": "10~30",
   "Cluster_group": " Rural Town "
 },
 {
   "Agglomeration_ID": 237,
   "Names": "Barsalogho",
   "ISO3": "BFA",
   "City_Size": 11426,
   "GrowthRate": 0.45,
   "Market_Potential": 350300,
   "Urban_Rate": 0.24,
   "Local_Dominance": 0.031,
   "Voronoi_area_km_square": "3,872",
   "Lon": -1.054,
   "Lat": 13.413,
   "CitySize_category": "10~30",
   "Cluster_group": " Rural Clusters "
 },
 {
   "Agglomeration_ID": 238,
   "Names": "Guiédougou",
   "ISO3": "BFA",
   "City_Size": 11194,
   "GrowthRate": 0.45,
   "Market_Potential": 187059,
   "Urban_Rate": 0.15,
   "Local_Dominance": 0.2852,
   "Voronoi_area_km_square": "5,854",
   "Lon": -3.424,
   "Lat": 12.999,
   "CitySize_category": "10~30",
   "Cluster_group": " Rural Clusters "
 },
 {
   "Agglomeration_ID": 239,
   "Names": "Vohogdin",
   "ISO3": "BFA",
   "City_Size": 11114,
   "GrowthRate": 1.91,
   "Market_Potential": 251799,
   "Urban_Rate": 0.2,
   "Local_Dominance": 0.179,
   "Voronoi_area_km_square": "1,726",
   "Lon": 0.147,
   "Lat": 11.704,
   "CitySize_category": "10~30",
   "Cluster_group": " Rural Clusters "
 },
 {
   "Agglomeration_ID": 240,
   "Names": "Pissila",
   "ISO3": "BFA",
   "City_Size": 11062,
   "GrowthRate": 0.56,
   "Market_Potential": 439320,
   "Urban_Rate": 0.22,
   "Local_Dominance": 0.0283,
   "Voronoi_area_km_square": "2,782",
   "Lon": -0.827,
   "Lat": 13.163,
   "CitySize_category": "10~30",
   "Cluster_group": " Rural Clusters "
 },
 {
   "Agglomeration_ID": 241,
   "Names": "Nadiagou",
   "ISO3": "BFA",
   "City_Size": 11049,
   "GrowthRate": 3.74,
   "Market_Potential": 167624,
   "Urban_Rate": 0.19,
   "Local_Dominance": 0.3564,
   "Voronoi_area_km_square": "3,748",
   "Lon": 0.837,
   "Lat": 11.16,
   "CitySize_category": "10~30",
   "Cluster_group": " Rural Clusters "
 },
 {
   "Agglomeration_ID": 242,
   "Names": "Soubakaniedougo",
   "ISO3": "BFA",
   "City_Size": 10912,
   "GrowthRate": 0.56,
   "Market_Potential": 310143,
   "Urban_Rate": 0.4,
   "Local_Dominance": 0.0143,
   "Voronoi_area_km_square": "2,327",
   "Lon": -5.003,
   "Lat": 10.475,
   "CitySize_category": "10~30",
   "Cluster_group": " Rural Clusters "
 },
 {
   "Agglomeration_ID": 243,
   "Names": "Ouargaye",
   "ISO3": "BFA",
   "City_Size": 10833,
   "GrowthRate": 0.23,
   "Market_Potential": 288628,
   "Urban_Rate": 0.08,
   "Local_Dominance": 0.4872,
   "Voronoi_area_km_square": "1,954",
   "Lon": 0.052,
   "Lat": 11.504,
   "CitySize_category": "10~30",
   "Cluster_group": " Rural Clusters "
 },
 {
   "Agglomeration_ID": 244,
   "Names": "Kompienga",
   "ISO3": "BFA",
   "City_Size": 10678,
   "GrowthRate": 0.81,
   "Market_Potential": 228352,
   "Urban_Rate": 0.2,
   "Local_Dominance": 0.2279,
   "Voronoi_area_km_square": "1,221",
   "Lon": 0.721,
   "Lat": 11.081,
   "CitySize_category": "10~30",
   "Cluster_group": " Rural Clusters "
 },
 {
   "Agglomeration_ID": 245,
   "Names": "Arbinda",
   "ISO3": "BFA",
   "City_Size": 10543,
   "GrowthRate": 0.25,
   "Market_Potential": 159267,
   "Urban_Rate": 0.07,
   "Local_Dominance": 1,
   "Voronoi_area_km_square": "10,225",
   "Lon": -0.863,
   "Lat": 14.229,
   "CitySize_category": "10~30",
   "Cluster_group": " Rural Town "
 },
 {
   "Agglomeration_ID": 246,
   "Names": "Boussouma",
   "ISO3": "BFA",
   "City_Size": 10503,
   "GrowthRate": 0.15,
   "Market_Potential": 521994,
   "Urban_Rate": 0.2,
   "Local_Dominance": 0.0245,
   "Voronoi_area_km_square": "973",
   "Lon": -1.088,
   "Lat": 12.921,
   "CitySize_category": "10~30",
   "Cluster_group": " Rural Clusters "
 },
 {
   "Agglomeration_ID": 247,
   "Names": "To",
   "ISO3": "BFA",
   "City_Size": 10439,
   "GrowthRate": 0.18,
   "Market_Potential": 191160,
   "Urban_Rate": 0.05,
   "Local_Dominance": 1,
   "Voronoi_area_km_square": "3,754",
   "Lon": -2.228,
   "Lat": 11.444,
   "CitySize_category": "10~30",
   "Cluster_group": " Rural Town "
 },
 {
   "Agglomeration_ID": 248,
   "Names": "Kyon",
   "ISO3": "BFA",
   "City_Size": 10327,
   "GrowthRate": 0.16,
   "Market_Potential": 457902,
   "Urban_Rate": 0.32,
   "Local_Dominance": 0.0106,
   "Voronoi_area_km_square": "2,315",
   "Lon": -2.576,
   "Lat": 12.284,
   "CitySize_category": "10~30",
   "Cluster_group": " Rural Clusters "
 },
 {
   "Agglomeration_ID": 249,
   "Names": "Pama",
   "ISO3": "BFA",
   "City_Size": 10319,
   "GrowthRate": 0.82,
   "Market_Potential": 142233,
   "Urban_Rate": 0.23,
   "Local_Dominance": 0.3108,
   "Voronoi_area_km_square": "1,956",
   "Lon": 0.706,
   "Lat": 11.244,
   "CitySize_category": "10~30",
   "Cluster_group": " Rural Clusters "
 },
 {
   "Agglomeration_ID": 250,
   "Names": "Gorom-Gorom",
   "ISO3": "BFA",
   "City_Size": 10212,
   "GrowthRate": 0.54,
   "Market_Potential": 170006,
   "Urban_Rate": 0.06,
   "Local_Dominance": 1,
   "Voronoi_area_km_square": "12,096",
   "Lon": -0.234,
   "Lat": 14.443,
   "CitySize_category": "10~30",
   "Cluster_group": " Rural Town "
 },
 {
   "Agglomeration_ID": 251,
   "Names": "Nagare",
   "ISO3": "BFA",
   "City_Size": 10184,
   "GrowthRate": 0.86,
   "Market_Potential": 181666,
   "Urban_Rate": 0.48,
   "Local_Dominance": 0.0375,
   "Voronoi_area_km_square": "1,554",
   "Lon": 0.446,
   "Lat": 11.794,
   "CitySize_category": "10~30",
   "Cluster_group": " Rural Clusters "
 },
 {
   "Agglomeration_ID": 252,
   "Names": "Kourouma",
   "ISO3": "BFA",
   "City_Size": 10115,
   "GrowthRate": 0.47,
   "Market_Potential": 233118,
   "Urban_Rate": 0.1,
   "Local_Dominance": 0.3674,
   "Voronoi_area_km_square": "3,865",
   "Lon": -4.799,
   "Lat": 11.617,
   "CitySize_category": "10~30",
   "Cluster_group": " Rural Clusters "
 },
 {
   "Agglomeration_ID": 299,
   "Names": "Abidjan",
   "ISO3": "CIV",
   "City_Size": 3966553,
   "GrowthRate": 0.29,
   "Market_Potential": 4277087,
   "Urban_Rate": 0.98,
   "Local_Dominance": 0.9994,
   "Voronoi_area_km_square": "721",
   "Lon": -4.029,
   "Lat": 5.353,
   "CitySize_category": "Above2000",
   "Cluster_group": " Global African Cities "
 },
 {
   "Agglomeration_ID": 300,
   "Names": "Bouaké",
   "ISO3": "CIV",
   "City_Size": 588533,
   "GrowthRate": 0.24,
   "Market_Potential": 721515,
   "Urban_Rate": 0.83,
   "Local_Dominance": 0.9996,
   "Voronoi_area_km_square": "3,502",
   "Lon": -5.02,
   "Lat": 7.706,
   "CitySize_category": "350~1000",
   "Cluster_group": " Regional Cities "
 },
 {
   "Agglomeration_ID": 301,
   "Names": "Daloa",
   "ISO3": "CIV",
   "City_Size": 224586,
   "GrowthRate": 0.26,
   "Market_Potential": 580130,
   "Urban_Rate": 0.55,
   "Local_Dominance": 0.9704,
   "Voronoi_area_km_square": "1,081",
   "Lon": -6.451,
   "Lat": 6.887,
   "CitySize_category": "100~350",
   "Cluster_group": " Local Cities "
 },
 {
   "Agglomeration_ID": 302,
   "Names": "Yamoussoukro",
   "ISO3": "CIV",
   "City_Size": 200883,
   "GrowthRate": 0.25,
   "Market_Potential": 485737,
   "Urban_Rate": 0.46,
   "Local_Dominance": 0.9891,
   "Voronoi_area_km_square": "1,952",
   "Lon": -5.276,
   "Lat": 6.823,
   "CitySize_category": "100~350",
   "Cluster_group": " Local Cities "
 },
 {
   "Agglomeration_ID": 303,
   "Names": "San-Pedro",
   "ISO3": "CIV",
   "City_Size": 195296,
   "GrowthRate": 0.41,
   "Market_Potential": 325379,
   "Urban_Rate": 0.81,
   "Local_Dominance": 0.9663,
   "Voronoi_area_km_square": "245",
   "Lon": -6.633,
   "Lat": 4.747,
   "CitySize_category": "100~350",
   "Cluster_group": " Local Cities "
 },
 {
   "Agglomeration_ID": 304,
   "Names": "Korhogo",
   "ISO3": "CIV",
   "City_Size": 173625,
   "GrowthRate": 0.2,
   "Market_Potential": 460162,
   "Urban_Rate": 0.38,
   "Local_Dominance": 1,
   "Voronoi_area_km_square": "5,017",
   "Lon": -5.632,
   "Lat": 9.457,
   "CitySize_category": "100~350",
   "Cluster_group": " Local Cities "
 },
 {
   "Agglomeration_ID": 305,
   "Names": "Man",
   "ISO3": "CIV",
   "City_Size": 145687,
   "GrowthRate": 0.22,
   "Market_Potential": 523526,
   "Urban_Rate": 0.32,
   "Local_Dominance": 0.9795,
   "Voronoi_area_km_square": "2,679",
   "Lon": -7.556,
   "Lat": 7.403,
   "CitySize_category": "100~350",
   "Cluster_group": " Local Cities "
 },
 {
   "Agglomeration_ID": 306,
   "Names": "Gagnoa",
   "ISO3": "CIV",
   "City_Size": 128506,
   "GrowthRate": 0.18,
   "Market_Potential": 561982,
   "Urban_Rate": 0.26,
   "Local_Dominance": 0.9855,
   "Voronoi_area_km_square": "1,616",
   "Lon": -5.957,
   "Lat": 6.137,
   "CitySize_category": "100~350",
   "Cluster_group": " Local Cities "
 },
 {
   "Agglomeration_ID": 307,
   "Names": "Divo",
   "ISO3": "CIV",
   "City_Size": 101173,
   "GrowthRate": 0.15,
   "Market_Potential": 466465,
   "Urban_Rate": 0.45,
   "Local_Dominance": 0.8042,
   "Voronoi_area_km_square": "1,177",
   "Lon": -5.355,
   "Lat": 5.84,
   "CitySize_category": "100~350",
   "Cluster_group": " Local Cities "
 },
 {
   "Agglomeration_ID": 308,
   "Names": "Abengourou",
   "ISO3": "CIV",
   "City_Size": 86064,
   "GrowthRate": 0.15,
   "Market_Potential": 335613,
   "Urban_Rate": 0.36,
   "Local_Dominance": 0.93,
   "Voronoi_area_km_square": "1,854",
   "Lon": -3.493,
   "Lat": 6.727,
   "CitySize_category": "30~100",
   "Cluster_group": " Local Cities "
 },
 {
   "Agglomeration_ID": 309,
   "Names": "Soubré",
   "ISO3": "CIV",
   "City_Size": 83777,
   "GrowthRate": 0.38,
   "Market_Potential": 575447,
   "Urban_Rate": 0.24,
   "Local_Dominance": 0.8658,
   "Voronoi_area_km_square": "1,318",
   "Lon": -6.591,
   "Lat": 5.784,
   "CitySize_category": "30~100",
   "Cluster_group": " Local Cities "
 },
 {
   "Agglomeration_ID": 310,
   "Names": "Danané",
   "ISO3": "CIV",
   "City_Size": 79466,
   "GrowthRate": 0.41,
   "Market_Potential": 372363,
   "Urban_Rate": 0.3,
   "Local_Dominance": 0.9273,
   "Voronoi_area_km_square": "2,577",
   "Lon": -8.153,
   "Lat": 7.263,
   "CitySize_category": "30~100",
   "Cluster_group": " Local Cities "
 },
 {
   "Agglomeration_ID": 311,
   "Names": "Dabou",
   "ISO3": "CIV",
   "City_Size": 67536,
   "GrowthRate": 0.23,
   "Market_Potential": 252572,
   "Urban_Rate": 0.46,
   "Local_Dominance": 0.8449,
   "Voronoi_area_km_square": "747",
   "Lon": -4.378,
   "Lat": 5.322,
   "CitySize_category": "30~100",
   "Cluster_group": " Local Cities "
 },
 {
   "Agglomeration_ID": 312,
   "Names": "Sinfra",
   "ISO3": "CIV",
   "City_Size": 64539,
   "GrowthRate": 0.27,
   "Market_Potential": 557039,
   "Urban_Rate": 0.37,
   "Local_Dominance": 0.5849,
   "Voronoi_area_km_square": "992",
   "Lon": -5.911,
   "Lat": 6.623,
   "CitySize_category": "30~100",
   "Cluster_group": " Local Cities "
 },
 {
   "Agglomeration_ID": 313,
   "Names": "Grand-Bassam",
   "ISO3": "CIV",
   "City_Size": 64296,
   "GrowthRate": 0.19,
   "Market_Potential": 1033223,
   "Urban_Rate": 0.1,
   "Local_Dominance": 0.6949,
   "Voronoi_area_km_square": "387",
   "Lon": -3.738,
   "Lat": 5.214,
   "CitySize_category": "30~100",
   "Cluster_group": " Local Cities "
 },
 {
   "Agglomeration_ID": 314,
   "Names": "Bouaflé",
   "ISO3": "CIV",
   "City_Size": 61144,
   "GrowthRate": 0.24,
   "Market_Potential": 418423,
   "Urban_Rate": 0.26,
   "Local_Dominance": 0.7143,
   "Voronoi_area_km_square": "1,974",
   "Lon": -5.753,
   "Lat": 6.983,
   "CitySize_category": "30~100",
   "Cluster_group": " Local Cities "
 },
 {
   "Agglomeration_ID": 315,
   "Names": "Agboville",
   "ISO3": "CIV",
   "City_Size": 60982,
   "GrowthRate": 0.12,
   "Market_Potential": 314752,
   "Urban_Rate": 0.41,
   "Local_Dominance": 0.7993,
   "Voronoi_area_km_square": "767",
   "Lon": -4.215,
   "Lat": 5.931,
   "CitySize_category": "30~100",
   "Cluster_group": " Local Cities "
 },
 {
   "Agglomeration_ID": 316,
   "Names": "Odienné",
   "ISO3": "CIV",
   "City_Size": 58041,
   "GrowthRate": 0.3,
   "Market_Potential": 87864,
   "Urban_Rate": 0.66,
   "Local_Dominance": 1,
   "Voronoi_area_km_square": "18,613",
   "Lon": -7.564,
   "Lat": 9.504,
   "CitySize_category": "30~100",
   "Cluster_group": " Rural Town "
 },
 {
   "Agglomeration_ID": 317,
   "Names": "Séguéla",
   "ISO3": "CIV",
   "City_Size": 57026,
   "GrowthRate": 0.29,
   "Market_Potential": 165961,
   "Urban_Rate": 0.45,
   "Local_Dominance": 0.9188,
   "Voronoi_area_km_square": "3,100",
   "Lon": -6.673,
   "Lat": 7.958,
   "CitySize_category": "30~100",
   "Cluster_group": " Local Cities "
 },
 {
   "Agglomeration_ID": 318,
   "Names": "Bondoukou",
   "ISO3": "CIV",
   "City_Size": 55407,
   "GrowthRate": 0.22,
   "Market_Potential": 353884,
   "Urban_Rate": 0.23,
   "Local_Dominance": 0.8975,
   "Voronoi_area_km_square": "1,705",
   "Lon": -2.797,
   "Lat": 8.044,
   "CitySize_category": "30~100",
   "Cluster_group": " Local Cities "
 },
 {
   "Agglomeration_ID": 319,
   "Names": "Dimbokro",
   "ISO3": "CIV",
   "City_Size": 54941,
   "GrowthRate": 0.16,
   "Market_Potential": 215800,
   "Urban_Rate": 0.44,
   "Local_Dominance": 0.6442,
   "Voronoi_area_km_square": "3,377",
   "Lon": -4.701,
   "Lat": 6.645,
   "CitySize_category": "30~100",
   "Cluster_group": " Local Cities "
 },
 {
   "Agglomeration_ID": 320,
   "Names": "Issia",
   "ISO3": "CIV",
   "City_Size": 54242,
   "GrowthRate": 0.29,
   "Market_Potential": 423569,
   "Urban_Rate": 0.18,
   "Local_Dominance": 0.8803,
   "Voronoi_area_km_square": "1,659",
   "Lon": -6.583,
   "Lat": 6.494,
   "CitySize_category": "30~100",
   "Cluster_group": " Local Cities "
 },
 {
   "Agglomeration_ID": 321,
   "Names": "Duékoué",
   "ISO3": "CIV",
   "City_Size": 53678,
   "GrowthRate": 0.28,
   "Market_Potential": 507516,
   "Urban_Rate": 0.41,
   "Local_Dominance": 0.4001,
   "Voronoi_area_km_square": "500",
   "Lon": -7.348,
   "Lat": 6.745,
   "CitySize_category": "30~100",
   "Cluster_group": " Local Cities "
 },
 {
   "Agglomeration_ID": 322,
   "Names": "Adzopé",
   "ISO3": "CIV",
   "City_Size": 52288,
   "GrowthRate": 0.17,
   "Market_Potential": 347941,
   "Urban_Rate": 0.39,
   "Local_Dominance": 0.6114,
   "Voronoi_area_km_square": "1,067",
   "Lon": -3.864,
   "Lat": 6.107,
   "CitySize_category": "30~100",
   "Cluster_group": " Local Cities "
 },
 {
   "Agglomeration_ID": 323,
   "Names": "Daoukro",
   "ISO3": "CIV",
   "City_Size": 51071,
   "GrowthRate": 0.35,
   "Market_Potential": 228197,
   "Urban_Rate": 0.22,
   "Local_Dominance": 1,
   "Voronoi_area_km_square": "4,062",
   "Lon": -3.962,
   "Lat": 7.055,
   "CitySize_category": "30~100",
   "Cluster_group": " Rural Town "
 },
 {
   "Agglomeration_ID": 324,
   "Names": "Guiglo",
   "ISO3": "CIV",
   "City_Size": 49889,
   "GrowthRate": 0.34,
   "Market_Potential": 418122,
   "Urban_Rate": 0.46,
   "Local_Dominance": 0.3385,
   "Voronoi_area_km_square": "1,576",
   "Lon": -7.5,
   "Lat": 6.545,
   "CitySize_category": "30~100",
   "Cluster_group": " Local Cities "
 },
 {
   "Agglomeration_ID": 325,
   "Names": "Ferkéssédougou",
   "ISO3": "CIV",
   "City_Size": 48413,
   "GrowthRate": 0.15,
   "Market_Potential": 220553,
   "Urban_Rate": 0.22,
   "Local_Dominance": 1,
   "Voronoi_area_km_square": "5,893",
   "Lon": -5.195,
   "Lat": 9.597,
   "CitySize_category": "30~100",
   "Cluster_group": " Rural Town "
 },
 {
   "Agglomeration_ID": 326,
   "Names": "Grand-Lahou",
   "ISO3": "CIV",
   "City_Size": 47068,
   "GrowthRate": 0.71,
   "Market_Potential": 112819,
   "Urban_Rate": 0.42,
   "Local_Dominance": 1,
   "Voronoi_area_km_square": "1,598",
   "Lon": -5.022,
   "Lat": 5.136,
   "CitySize_category": "30~100",
   "Cluster_group": " Rural Town "
 },
 {
   "Agglomeration_ID": 327,
   "Names": "Bloléquin",
   "ISO3": "CIV",
   "City_Size": 44188,
   "GrowthRate": 0.66,
   "Market_Potential": 189687,
   "Urban_Rate": 0.23,
   "Local_Dominance": 1,
   "Voronoi_area_km_square": "2,531",
   "Lon": -8.009,
   "Lat": 6.569,
   "CitySize_category": "30~100",
   "Cluster_group": " Rural Town "
 },
 {
   "Agglomeration_ID": 328,
   "Names": "Katiola",
   "ISO3": "CIV",
   "City_Size": 43000,
   "GrowthRate": 0.11,
   "Market_Potential": 168256,
   "Urban_Rate": 0.32,
   "Local_Dominance": 0.935,
   "Voronoi_area_km_square": "3,796",
   "Lon": -5.104,
   "Lat": 8.141,
   "CitySize_category": "30~100",
   "Cluster_group": " Rural Town "
 },
 {
   "Agglomeration_ID": 329,
   "Names": "Bonoua",
   "ISO3": "CIV",
   "City_Size": 42605,
   "GrowthRate": 0.3,
   "Market_Potential": 532199,
   "Urban_Rate": 0.29,
   "Local_Dominance": 0.2727,
   "Voronoi_area_km_square": "623",
   "Lon": -3.594,
   "Lat": 5.27,
   "CitySize_category": "30~100",
   "Cluster_group": " Rural Clusters "
 },
 {
   "Agglomeration_ID": 330,
   "Names": "Agnibélékrou",
   "ISO3": "CIV",
   "City_Size": 41492,
   "GrowthRate": 0.23,
   "Market_Potential": 299852,
   "Urban_Rate": 0.24,
   "Local_Dominance": 0.6461,
   "Voronoi_area_km_square": "3,553",
   "Lon": -3.201,
   "Lat": 7.129,
   "CitySize_category": "30~100",
   "Cluster_group": " Local Cities "
 },
 {
   "Agglomeration_ID": 331,
   "Names": "Toumodi",
   "ISO3": "CIV",
   "City_Size": 40827,
   "GrowthRate": 0.26,
   "Market_Potential": 310083,
   "Urban_Rate": 0.31,
   "Local_Dominance": 0.3558,
   "Voronoi_area_km_square": "2,113",
   "Lon": -5.017,
   "Lat": 6.554,
   "CitySize_category": "30~100",
   "Cluster_group": " Rural Clusters "
 },
 {
   "Agglomeration_ID": 332,
   "Names": "Vavoua",
   "ISO3": "CIV",
   "City_Size": 40693,
   "GrowthRate": 0.33,
   "Market_Potential": 353139,
   "Urban_Rate": 0.39,
   "Local_Dominance": 0.5127,
   "Voronoi_area_km_square": "1,617",
   "Lon": -6.479,
   "Lat": 7.384,
   "CitySize_category": "30~100",
   "Cluster_group": " Rural Clusters "
 },
 {
   "Agglomeration_ID": 333,
   "Names": "Lakota",
   "ISO3": "CIV",
   "City_Size": 38414,
   "GrowthRate": 0.25,
   "Market_Potential": 446969,
   "Urban_Rate": 0.31,
   "Local_Dominance": 0.126,
   "Voronoi_area_km_square": "1,931",
   "Lon": -5.683,
   "Lat": 5.851,
   "CitySize_category": "30~100",
   "Cluster_group": " Rural Clusters "
 },
 {
   "Agglomeration_ID": 334,
   "Names": "Bonon (Séhizia)",
   "ISO3": "CIV",
   "City_Size": 36791,
   "GrowthRate": 0.27,
   "Market_Potential": 537637,
   "Urban_Rate": 0.5,
   "Local_Dominance": 0.125,
   "Voronoi_area_km_square": "722",
   "Lon": -6.042,
   "Lat": 6.927,
   "CitySize_category": "30~100",
   "Cluster_group": " Rural Clusters "
 },
 {
   "Agglomeration_ID": 335,
   "Names": "Djapadji",
   "ISO3": "CIV",
   "City_Size": 36579,
   "GrowthRate": 0.82,
   "Market_Potential": 288071,
   "Urban_Rate": 0.57,
   "Local_Dominance": 0.2485,
   "Voronoi_area_km_square": "1,571",
   "Lon": -6.821,
   "Lat": 5.291,
   "CitySize_category": "30~100",
   "Cluster_group": " Rural Clusters "
 },
 {
   "Agglomeration_ID": 336,
   "Names": "Tabou",
   "ISO3": "CIV",
   "City_Size": 36241,
   "GrowthRate": 0.51,
   "Market_Potential": 157556,
   "Urban_Rate": 0.58,
   "Local_Dominance": 0.5519,
   "Voronoi_area_km_square": "474",
   "Lon": -7.361,
   "Lat": 4.418,
   "CitySize_category": "30~100",
   "Cluster_group": " Rural Clusters "
 },
 {
   "Agglomeration_ID": 337,
   "Names": "Boundiali",
   "ISO3": "CIV",
   "City_Size": 33645,
   "GrowthRate": 0.18,
   "Market_Potential": 114858,
   "Urban_Rate": 0.29,
   "Local_Dominance": 1,
   "Voronoi_area_km_square": "10,042",
   "Lon": -6.481,
   "Lat": 9.533,
   "CitySize_category": "30~100",
   "Cluster_group": " Rural Town "
 },
 {
   "Agglomeration_ID": 338,
   "Names": "Touih",
   "ISO3": "CIV",
   "City_Size": 33420,
   "GrowthRate": 0.64,
   "Market_Potential": 432157,
   "Urban_Rate": 0.47,
   "Local_Dominance": 0.1761,
   "Voronoi_area_km_square": "1,078",
   "Lon": -6.536,
   "Lat": 5.262,
   "CitySize_category": "30~100",
   "Cluster_group": " Rural Clusters "
 },
 {
   "Agglomeration_ID": 339,
   "Names": "Aboisso",
   "ISO3": "CIV",
   "City_Size": 32928,
   "GrowthRate": 0.19,
   "Market_Potential": 345833,
   "Urban_Rate": 0.32,
   "Local_Dominance": 0.4542,
   "Voronoi_area_km_square": "565",
   "Lon": -3.202,
   "Lat": 5.47,
   "CitySize_category": "30~100",
   "Cluster_group": " Rural Clusters "
 },
 {
   "Agglomeration_ID": 340,
   "Names": "Gligbeuadji",
   "ISO3": "CIV",
   "City_Size": 32365,
   "GrowthRate": 0.79,
   "Market_Potential": 367141,
   "Urban_Rate": 0.52,
   "Local_Dominance": 0.1693,
   "Voronoi_area_km_square": "380",
   "Lon": -6.704,
   "Lat": 5.203,
   "CitySize_category": "30~100",
   "Cluster_group": " Rural Clusters "
 },
 {
   "Agglomeration_ID": 341,
   "Names": "Dagadji",
   "ISO3": "CIV",
   "City_Size": 31985,
   "GrowthRate": 0.84,
   "Market_Potential": 247823,
   "Urban_Rate": 0.66,
   "Local_Dominance": 0.1921,
   "Voronoi_area_km_square": "1,698",
   "Lon": -6.813,
   "Lat": 5.126,
   "CitySize_category": "30~100",
   "Cluster_group": " Rural Clusters "
 },
 {
   "Agglomeration_ID": 342,
   "Names": "Béoumi",
   "ISO3": "CIV",
   "City_Size": 30030,
   "GrowthRate": 0.35,
   "Market_Potential": 260185,
   "Urban_Rate": 0.21,
   "Local_Dominance": 0.7628,
   "Voronoi_area_km_square": "2,464",
   "Lon": -5.582,
   "Lat": 7.674,
   "CitySize_category": "30~100",
   "Cluster_group": " Rural Clusters "
 },
 {
   "Agglomeration_ID": 343,
   "Names": "Oumé",
   "ISO3": "CIV",
   "City_Size": 29912,
   "GrowthRate": 0.01,
   "Market_Potential": 439960,
   "Urban_Rate": 0.3,
   "Local_Dominance": 0.3276,
   "Voronoi_area_km_square": "1,032",
   "Lon": -5.414,
   "Lat": 6.385,
   "CitySize_category": "10~30",
   "Cluster_group": " Rural Clusters "
 },
 {
   "Agglomeration_ID": 344,
   "Names": "Méagui (Méadji)",
   "ISO3": "CIV",
   "City_Size": 29313,
   "GrowthRate": 0.52,
   "Market_Potential": 433229,
   "Urban_Rate": 0.33,
   "Local_Dominance": 0.1901,
   "Voronoi_area_km_square": "890",
   "Lon": -6.556,
   "Lat": 5.407,
   "CitySize_category": "10~30",
   "Cluster_group": " Rural Clusters "
 },
 {
   "Agglomeration_ID": 345,
   "Names": "Akoupé",
   "ISO3": "CIV",
   "City_Size": 28414,
   "GrowthRate": 0.07,
   "Market_Potential": 303857,
   "Urban_Rate": 0.5,
   "Local_Dominance": 0.1617,
   "Voronoi_area_km_square": "151",
   "Lon": -3.886,
   "Lat": 6.382,
   "CitySize_category": "10~30",
   "Cluster_group": " Rural Clusters "
 },
 {
   "Agglomeration_ID": 346,
   "Names": "Gabiadji",
   "ISO3": "CIV",
   "City_Size": 28297,
   "GrowthRate": 0.72,
   "Market_Potential": 510980,
   "Urban_Rate": 0.68,
   "Local_Dominance": 0.0188,
   "Voronoi_area_km_square": "940",
   "Lon": -6.556,
   "Lat": 5.023,
   "CitySize_category": "10~30",
   "Cluster_group": " Satellite Town "
 },
 {
   "Agglomeration_ID": 347,
   "Names": "Zuénoula",
   "ISO3": "CIV",
   "City_Size": 28272,
   "GrowthRate": 0.16,
   "Market_Potential": 269603,
   "Urban_Rate": 0.2,
   "Local_Dominance": 0.7189,
   "Voronoi_area_km_square": "1,627",
   "Lon": -6.049,
   "Lat": 7.429,
   "CitySize_category": "10~30",
   "Cluster_group": " Rural Clusters "
 },
 {
   "Agglomeration_ID": 348,
   "Names": "Gran-Zatry",
   "ISO3": "CIV",
   "City_Size": 27499,
   "GrowthRate": 0.48,
   "Market_Potential": 525918,
   "Urban_Rate": 0.33,
   "Local_Dominance": 0.085,
   "Voronoi_area_km_square": "1,223",
   "Lon": -6.54,
   "Lat": 6.118,
   "CitySize_category": "10~30",
   "Cluster_group": " Rural Clusters "
 },
 {
   "Agglomeration_ID": 349,
   "Names": "Touba",
   "ISO3": "CIV",
   "City_Size": 27407,
   "GrowthRate": 0.24,
   "Market_Potential": 98571,
   "Urban_Rate": 0.28,
   "Local_Dominance": 1,
   "Voronoi_area_km_square": "7,598",
   "Lon": -7.683,
   "Lat": 8.284,
   "CitySize_category": "10~30",
   "Cluster_group": " Rural Town "
 },
 {
   "Agglomeration_ID": 350,
   "Names": "Zagné",
   "ISO3": "CIV",
   "City_Size": 27388,
   "GrowthRate": 0.46,
   "Market_Potential": 187509,
   "Urban_Rate": 0.41,
   "Local_Dominance": 0.2316,
   "Voronoi_area_km_square": "3,481",
   "Lon": -7.485,
   "Lat": 6.213,
   "CitySize_category": "10~30",
   "Cluster_group": " Rural Clusters "
 },
 {
   "Agglomeration_ID": 351,
   "Names": "Bongouanou",
   "ISO3": "CIV",
   "City_Size": 27207,
   "GrowthRate": 0.1,
   "Market_Potential": 285672,
   "Urban_Rate": 0.25,
   "Local_Dominance": 0.4402,
   "Voronoi_area_km_square": "1,812",
   "Lon": -4.202,
   "Lat": 6.651,
   "CitySize_category": "10~30",
   "Cluster_group": " Rural Clusters "
 },
 {
   "Agglomeration_ID": 352,
   "Names": "Tortiya",
   "ISO3": "CIV",
   "City_Size": 25624,
   "GrowthRate": 0.1,
   "Market_Potential": 106741,
   "Urban_Rate": 0.34,
   "Local_Dominance": 0.8623,
   "Voronoi_area_km_square": "3,703",
   "Lon": -5.685,
   "Lat": 8.775,
   "CitySize_category": "10~30",
   "Cluster_group": " Rural Town "
 },
 {
   "Agglomeration_ID": 353,
   "Names": "N'douci",
   "ISO3": "CIV",
   "City_Size": 25195,
   "GrowthRate": 0.25,
   "Market_Potential": 316413,
   "Urban_Rate": 0.34,
   "Local_Dominance": 0.362,
   "Voronoi_area_km_square": "512",
   "Lon": -4.762,
   "Lat": 5.862,
   "CitySize_category": "10~30",
   "Cluster_group": " Rural Clusters "
 },
 {
   "Agglomeration_ID": 354,
   "Names": "Arrah",
   "ISO3": "CIV",
   "City_Size": 24938,
   "GrowthRate": 0.07,
   "Market_Potential": 321878,
   "Urban_Rate": 0.36,
   "Local_Dominance": 0.2152,
   "Voronoi_area_km_square": "1,385",
   "Lon": -3.972,
   "Lat": 6.674,
   "CitySize_category": "10~30",
   "Cluster_group": " Rural Clusters "
 },
 {
   "Agglomeration_ID": 355,
   "Names": "Afféry",
   "ISO3": "CIV",
   "City_Size": 24092,
   "GrowthRate": 0.15,
   "Market_Potential": 298606,
   "Urban_Rate": 0.51,
   "Local_Dominance": 0.1163,
   "Voronoi_area_km_square": "856",
   "Lon": -3.949,
   "Lat": 6.32,
   "CitySize_category": "10~30",
   "Cluster_group": " Rural Clusters "
 },
 {
   "Agglomeration_ID": 356,
   "Names": "Fengolo",
   "ISO3": "CIV",
   "City_Size": 24005,
   "GrowthRate": 0.75,
   "Market_Potential": 517058,
   "Urban_Rate": 0.31,
   "Local_Dominance": 0.0898,
   "Voronoi_area_km_square": "738",
   "Lon": -7.394,
   "Lat": 6.786,
   "CitySize_category": "10~30",
   "Cluster_group": " Rural Clusters "
 },
 {
   "Agglomeration_ID": 357,
   "Names": "Ouangolodougou",
   "ISO3": "CIV",
   "City_Size": 23842,
   "GrowthRate": 0.29,
   "Market_Potential": 175833,
   "Urban_Rate": 0.14,
   "Local_Dominance": 1,
   "Voronoi_area_km_square": "4,091",
   "Lon": -5.148,
   "Lat": 9.969,
   "CitySize_category": "10~30",
   "Cluster_group": " Rural Town "
 },
 {
   "Agglomeration_ID": 358,
   "Names": "Belle-Ville",
   "ISO3": "CIV",
   "City_Size": 22398,
   "GrowthRate": 0.58,
   "Market_Potential": 313020,
   "Urban_Rate": 0.39,
   "Local_Dominance": 0.2156,
   "Voronoi_area_km_square": "374",
   "Lon": -6.876,
   "Lat": 6.168,
   "CitySize_category": "10~30",
   "Cluster_group": " Rural Clusters "
 },
 {
   "Agglomeration_ID": 359,
   "Names": "Tingréla",
   "ISO3": "CIV",
   "City_Size": 22382,
   "GrowthRate": 0,
   "Market_Potential": 170626,
   "Urban_Rate": 0.13,
   "Local_Dominance": 1,
   "Voronoi_area_km_square": "8,223",
   "Lon": -6.409,
   "Lat": 10.483,
   "CitySize_category": "10~30",
   "Cluster_group": " Rural Town "
 },
 {
   "Agglomeration_ID": 360,
   "Names": "Monoko Zohi",
   "ISO3": "CIV",
   "City_Size": 21957,
   "GrowthRate": 0.43,
   "Market_Potential": 319422,
   "Urban_Rate": 0.32,
   "Local_Dominance": 0.2699,
   "Voronoi_area_km_square": "1,012",
   "Lon": -6.846,
   "Lat": 7.072,
   "CitySize_category": "10~30",
   "Cluster_group": " Rural Clusters "
 },
 {
   "Agglomeration_ID": 361,
   "Names": "Belle-Ville {Bromakoté}",
   "ISO3": "CIV",
   "City_Size": 21523,
   "GrowthRate": 0.31,
   "Market_Potential": 339063,
   "Urban_Rate": 0.28,
   "Local_Dominance": 0.2838,
   "Voronoi_area_km_square": "694",
   "Lon": -6.848,
   "Lat": 6.873,
   "CitySize_category": "10~30",
   "Cluster_group": " Rural Clusters "
 },
 {
   "Agglomeration_ID": 362,
   "Names": "Hiré (Hiré Watta)",
   "ISO3": "CIV",
   "City_Size": 21219,
   "GrowthRate": 0.16,
   "Market_Potential": 416786,
   "Urban_Rate": 0.47,
   "Local_Dominance": 0.0366,
   "Voronoi_area_km_square": "945",
   "Lon": -5.294,
   "Lat": 6.19,
   "CitySize_category": "10~30",
   "Cluster_group": " Rural Clusters "
 },
 {
   "Agglomeration_ID": 363,
   "Names": "Diégonefla",
   "ISO3": "CIV",
   "City_Size": 21214,
   "GrowthRate": 0.3,
   "Market_Potential": 446495,
   "Urban_Rate": 0.25,
   "Local_Dominance": 0.1887,
   "Voronoi_area_km_square": "992",
   "Lon": -5.574,
   "Lat": 6.287,
   "CitySize_category": "10~30",
   "Cluster_group": " Rural Clusters "
 },
 {
   "Agglomeration_ID": 364,
   "Names": "Biankouma",
   "ISO3": "CIV",
   "City_Size": 21079,
   "GrowthRate": 0.21,
   "Market_Potential": 302663,
   "Urban_Rate": 0.55,
   "Local_Dominance": 0.0205,
   "Voronoi_area_km_square": "4,689",
   "Lon": -7.617,
   "Lat": 7.743,
   "CitySize_category": "10~30",
   "Cluster_group": " Rural Clusters "
 },
 {
   "Agglomeration_ID": 365,
   "Names": "Tiébissou",
   "ISO3": "CIV",
   "City_Size": 21050,
   "GrowthRate": 0.31,
   "Market_Potential": 409226,
   "Urban_Rate": 0.58,
   "Local_Dominance": 0.0108,
   "Voronoi_area_km_square": "3,022",
   "Lon": -5.225,
   "Lat": 7.158,
   "CitySize_category": "10~30",
   "Cluster_group": " Rural Clusters "
 },
 {
   "Agglomeration_ID": 366,
   "Names": "Tanda",
   "ISO3": "CIV",
   "City_Size": 20825,
   "GrowthRate": 0.26,
   "Market_Potential": 216480,
   "Urban_Rate": 0.15,
   "Local_Dominance": 0.7389,
   "Voronoi_area_km_square": "2,960",
   "Lon": -3.167,
   "Lat": 7.804,
   "CitySize_category": "10~30",
   "Cluster_group": " Rural Town "
 },
 {
   "Agglomeration_ID": 367,
   "Names": "Bonoufla",
   "ISO3": "CIV",
   "City_Size": 20098,
   "GrowthRate": 0.43,
   "Market_Potential": 633958,
   "Urban_Rate": 0.56,
   "Local_Dominance": 0.0076,
   "Voronoi_area_km_square": "478",
   "Lon": -6.476,
   "Lat": 7.13,
   "CitySize_category": "10~30",
   "Cluster_group": " Satellite Town "
 },
 {
   "Agglomeration_ID": 368,
   "Names": "Songon-Agban",
   "ISO3": "CIV",
   "City_Size": 20087,
   "GrowthRate": 0.56,
   "Market_Potential": 4171107,
   "Urban_Rate": 0.99,
   "Local_Dominance": 0,
   "Voronoi_area_km_square": "396",
   "Lon": -4.251,
   "Lat": 5.325,
   "CitySize_category": "10~30",
   "Cluster_group": " Satellite Town "
 },
 {
   "Agglomeration_ID": 369,
   "Names": "Saioua",
   "ISO3": "CIV",
   "City_Size": 20000,
   "GrowthRate": 0.25,
   "Market_Potential": 456494,
   "Urban_Rate": 0.3,
   "Local_Dominance": 0.0922,
   "Voronoi_area_km_square": "1,081",
   "Lon": -6.277,
   "Lat": 6.489,
   "CitySize_category": "10~30",
   "Cluster_group": " Rural Clusters "
 },
 {
   "Agglomeration_ID": 370,
   "Names": "Mankono",
   "ISO3": "CIV",
   "City_Size": 19488,
   "GrowthRate": 0.28,
   "Market_Potential": 129680,
   "Urban_Rate": 0.15,
   "Local_Dominance": 1,
   "Voronoi_area_km_square": "4,962",
   "Lon": -6.189,
   "Lat": 8.055,
   "CitySize_category": "10~30",
   "Cluster_group": " Rural Town "
 },
 {
   "Agglomeration_ID": 371,
   "Names": "Aboisso-Comoé",
   "ISO3": "CIV",
   "City_Size": 19359,
   "GrowthRate": 0.27,
   "Market_Potential": 241964,
   "Urban_Rate": 0.44,
   "Local_Dominance": 0.1685,
   "Voronoi_area_km_square": "1,478",
   "Lon": -3.403,
   "Lat": 5.735,
   "CitySize_category": "10~30",
   "Cluster_group": " Rural Clusters "
 },
 {
   "Agglomeration_ID": 372,
   "Names": "Azaguié",
   "ISO3": "CIV",
   "City_Size": 19036,
   "GrowthRate": 0.13,
   "Market_Potential": 4109647,
   "Urban_Rate": 1,
   "Local_Dominance": 0,
   "Voronoi_area_km_square": "816",
   "Lon": -4.082,
   "Lat": 5.63,
   "CitySize_category": "10~30",
   "Cluster_group": " Satellite Town "
 },
 {
   "Agglomeration_ID": 373,
   "Names": "Buyo",
   "ISO3": "CIV",
   "City_Size": 18765,
   "GrowthRate": 0.39,
   "Market_Potential": 273516,
   "Urban_Rate": 0.42,
   "Local_Dominance": 0.1714,
   "Voronoi_area_km_square": "1,153",
   "Lon": -7.001,
   "Lat": 6.251,
   "CitySize_category": "10~30",
   "Cluster_group": " Rural Clusters "
 },
 {
   "Agglomeration_ID": 374,
   "Names": "FLATCHEDOUGOU",
   "ISO3": "CIV",
   "City_Size": 18754,
   "GrowthRate": 0.34,
   "Market_Potential": 108607,
   "Urban_Rate": 0.4,
   "Local_Dominance": 0.5251,
   "Voronoi_area_km_square": "2,593",
   "Lon": -3.128,
   "Lat": 8.481,
   "CitySize_category": "10~30",
   "Cluster_group": " Rural Clusters "
 },
 {
   "Agglomeration_ID": 375,
   "Names": "Adiaké",
   "ISO3": "CIV",
   "City_Size": 18753,
   "GrowthRate": 0.29,
   "Market_Potential": 345401,
   "Urban_Rate": 0.39,
   "Local_Dominance": 0.0919,
   "Voronoi_area_km_square": "703",
   "Lon": -3.303,
   "Lat": 5.287,
   "CitySize_category": "10~30",
   "Cluster_group": " Rural Clusters "
 },
 {
   "Agglomeration_ID": 376,
   "Names": "Bouna",
   "ISO3": "CIV",
   "City_Size": 18724,
   "GrowthRate": 0.15,
   "Market_Potential": 87144,
   "Urban_Rate": 0.21,
   "Local_Dominance": 1,
   "Voronoi_area_km_square": "10,554",
   "Lon": -3,
   "Lat": 9.272,
   "CitySize_category": "10~30",
   "Cluster_group": " Rural Town "
 },
 {
   "Agglomeration_ID": 377,
   "Names": "Appoisso",
   "ISO3": "CIV",
   "City_Size": 18715,
   "GrowthRate": 0.7,
   "Market_Potential": 360123,
   "Urban_Rate": 0.38,
   "Local_Dominance": 0.0424,
   "Voronoi_area_km_square": "795",
   "Lon": -3.429,
   "Lat": 6.554,
   "CitySize_category": "10~30",
   "Cluster_group": " Rural Clusters "
 },
 {
   "Agglomeration_ID": 378,
   "Names": "Sassandra",
   "ISO3": "CIV",
   "City_Size": 18657,
   "GrowthRate": 0.15,
   "Market_Potential": 189624,
   "Urban_Rate": 0.18,
   "Local_Dominance": 0.6064,
   "Voronoi_area_km_square": "1,250",
   "Lon": -6.086,
   "Lat": 4.953,
   "CitySize_category": "10~30",
   "Cluster_group": " Rural Clusters "
 },
 {
   "Agglomeration_ID": 379,
   "Names": "Konéfla",
   "ISO3": "CIV",
   "City_Size": 18614,
   "GrowthRate": 0.2,
   "Market_Potential": 569088,
   "Urban_Rate": 0.25,
   "Local_Dominance": 0.0588,
   "Voronoi_area_km_square": "868",
   "Lon": -5.606,
   "Lat": 6.654,
   "CitySize_category": "10~30",
   "Cluster_group": " Rural Clusters "
 },
 {
   "Agglomeration_ID": 380,
   "Names": "Zouan-Hounien",
   "ISO3": "CIV",
   "City_Size": 18458,
   "GrowthRate": 0.33,
   "Market_Potential": 395398,
   "Urban_Rate": 0.25,
   "Local_Dominance": 0.0512,
   "Voronoi_area_km_square": "2,143",
   "Lon": -8.209,
   "Lat": 6.92,
   "CitySize_category": "10~30",
   "Cluster_group": " Rural Clusters "
 },
 {
   "Agglomeration_ID": 381,
   "Names": "Tafiré",
   "ISO3": "CIV",
   "City_Size": 18376,
   "GrowthRate": 0.32,
   "Market_Potential": 84026,
   "Urban_Rate": 0.22,
   "Local_Dominance": 1,
   "Voronoi_area_km_square": "6,647",
   "Lon": -5.162,
   "Lat": 9.071,
   "CitySize_category": "10~30",
   "Cluster_group": " Rural Town "
 },
 {
   "Agglomeration_ID": 382,
   "Names": "Guépahouo",
   "ISO3": "CIV",
   "City_Size": 18362,
   "GrowthRate": 0.49,
   "Market_Potential": 575316,
   "Urban_Rate": 0.29,
   "Local_Dominance": 0.0532,
   "Voronoi_area_km_square": "822",
   "Lon": -5.706,
   "Lat": 6.474,
   "CitySize_category": "10~30",
   "Cluster_group": " Rural Clusters "
 },
 {
   "Agglomeration_ID": 383,
   "Names": "Okromodou",
   "ISO3": "CIV",
   "City_Size": 18313,
   "GrowthRate": 0.42,
   "Market_Potential": 211692,
   "Urban_Rate": 0.25,
   "Local_Dominance": 0.4611,
   "Voronoi_area_km_square": "1,159",
   "Lon": -5.671,
   "Lat": 5.349,
   "CitySize_category": "10~30",
   "Cluster_group": " Rural Clusters "
 },
 {
   "Agglomeration_ID": 384,
   "Names": "Gbapleu",
   "ISO3": "CIV",
   "City_Size": 18211,
   "GrowthRate": 0.4,
   "Market_Potential": 444232,
   "Urban_Rate": 0.42,
   "Local_Dominance": 0.0492,
   "Voronoi_area_km_square": "641",
   "Lon": -7.159,
   "Lat": 6.48,
   "CitySize_category": "10~30",
   "Cluster_group": " Rural Clusters "
 },
 {
   "Agglomeration_ID": 385,
   "Names": "Ayamé",
   "ISO3": "CIV",
   "City_Size": 18209,
   "GrowthRate": 0.39,
   "Market_Potential": 293377,
   "Urban_Rate": 0.37,
   "Local_Dominance": 0.1413,
   "Voronoi_area_km_square": "782",
   "Lon": -3.158,
   "Lat": 5.605,
   "CitySize_category": "10~30",
   "Cluster_group": " Rural Clusters "
 },
 {
   "Agglomeration_ID": 386,
   "Names": "Loboville",
   "ISO3": "CIV",
   "City_Size": 18163,
   "GrowthRate": 0.51,
   "Market_Potential": 354859,
   "Urban_Rate": 0.34,
   "Local_Dominance": 0.1418,
   "Voronoi_area_km_square": "473",
   "Lon": -6.818,
   "Lat": 6.13,
   "CitySize_category": "10~30",
   "Cluster_group": " Rural Clusters "
 },
 {
   "Agglomeration_ID": 387,
   "Names": "Kranzadougou",
   "ISO3": "CIV",
   "City_Size": 18045,
   "GrowthRate": 0.37,
   "Market_Potential": 443169,
   "Urban_Rate": 0.42,
   "Local_Dominance": 0.0483,
   "Voronoi_area_km_square": "702",
   "Lon": -7.202,
   "Lat": 6.481,
   "CitySize_category": "10~30",
   "Cluster_group": " Rural Clusters "
 },
 {
   "Agglomeration_ID": 388,
   "Names": "M'batto",
   "ISO3": "CIV",
   "City_Size": 17868,
   "GrowthRate": 0.05,
   "Market_Potential": 262183,
   "Urban_Rate": 0.22,
   "Local_Dominance": 0.2677,
   "Voronoi_area_km_square": "1,216",
   "Lon": -4.353,
   "Lat": 6.472,
   "CitySize_category": "10~30",
   "Cluster_group": " Rural Clusters "
 },
 {
   "Agglomeration_ID": 389,
   "Names": "Pélézi",
   "ISO3": "CIV",
   "City_Size": 17519,
   "GrowthRate": 0.28,
   "Market_Potential": 303797,
   "Urban_Rate": 0.49,
   "Local_Dominance": 0.0897,
   "Voronoi_area_km_square": "1,138",
   "Lon": -6.815,
   "Lat": 7.283,
   "CitySize_category": "10~30",
   "Cluster_group": " Rural Clusters "
 },
 {
   "Agglomeration_ID": 390,
   "Names": "Tiassalé",
   "ISO3": "CIV",
   "City_Size": 17356,
   "GrowthRate": -0.06,
   "Market_Potential": 317679,
   "Urban_Rate": 0.34,
   "Local_Dominance": 0.1687,
   "Voronoi_area_km_square": "412",
   "Lon": -4.826,
   "Lat": 5.896,
   "CitySize_category": "10~30",
   "Cluster_group": " Rural Clusters "
 },
 {
   "Agglomeration_ID": 391,
   "Names": "Zaliohouan",
   "ISO3": "CIV",
   "City_Size": 17348,
   "GrowthRate": 0.27,
   "Market_Potential": 671971,
   "Urban_Rate": 0.57,
   "Local_Dominance": 0.0056,
   "Voronoi_area_km_square": "430",
   "Lon": -6.236,
   "Lat": 6.795,
   "CitySize_category": "10~30",
   "Cluster_group": " Satellite Town "
 },
 {
   "Agglomeration_ID": 392,
   "Names": "Luénoufla",
   "ISO3": "CIV",
   "City_Size": 17287,
   "GrowthRate": 0.2,
   "Market_Potential": 603946,
   "Urban_Rate": 0.64,
   "Local_Dominance": 0.0056,
   "Voronoi_area_km_square": "925",
   "Lon": -6.24,
   "Lat": 7.072,
   "CitySize_category": "10~30",
   "Cluster_group": " Satellite Town "
 },
 {
   "Agglomeration_ID": 393,
   "Names": "Ebilassokro",
   "ISO3": "CIV",
   "City_Size": 17133,
   "GrowthRate": 0.31,
   "Market_Potential": 263570,
   "Urban_Rate": 0.23,
   "Local_Dominance": 0.3072,
   "Voronoi_area_km_square": "1,325",
   "Lon": -3.348,
   "Lat": 6.379,
   "CitySize_category": "10~30",
   "Cluster_group": " Rural Clusters "
 },
 {
   "Agglomeration_ID": 394,
   "Names": "Bannonfla",
   "ISO3": "CIV",
   "City_Size": 16975,
   "GrowthRate": 0.39,
   "Market_Potential": 608836,
   "Urban_Rate": 0.37,
   "Local_Dominance": 0.0385,
   "Voronoi_area_km_square": "156",
   "Lon": -6.108,
   "Lat": 6.747,
   "CitySize_category": "10~30",
   "Cluster_group": " Rural Clusters "
 },
 {
   "Agglomeration_ID": 395,
   "Names": "Diarabana, Diaranbara",
   "ISO3": "CIV",
   "City_Size": 16952,
   "GrowthRate": 0.65,
   "Market_Potential": 141600,
   "Urban_Rate": 0.6,
   "Local_Dominance": 0.0787,
   "Voronoi_area_km_square": "1,739",
   "Lon": -6.61,
   "Lat": 8.186,
   "CitySize_category": "10~30",
   "Cluster_group": " Rural Clusters "
 },
 {
   "Agglomeration_ID": 396,
   "Names": "Jacqueville",
   "ISO3": "CIV",
   "City_Size": 16801,
   "GrowthRate": 0.33,
   "Market_Potential": 439743,
   "Urban_Rate": 0.27,
   "Local_Dominance": 0.0523,
   "Voronoi_area_km_square": "597",
   "Lon": -4.417,
   "Lat": 5.205,
   "CitySize_category": "10~30",
   "Cluster_group": " Rural Clusters "
 },
 {
   "Agglomeration_ID": 397,
   "Names": "Ancien Prozi",
   "ISO3": "CIV",
   "City_Size": 16512,
   "GrowthRate": 0.31,
   "Market_Potential": 287183,
   "Urban_Rate": 0.37,
   "Local_Dominance": 0.1009,
   "Voronoi_area_km_square": "1,426",
   "Lon": -6.806,
   "Lat": 7.486,
   "CitySize_category": "10~30",
   "Cluster_group": " Rural Clusters "
 },
 {
   "Agglomeration_ID": 398,
   "Names": "Mignoure",
   "ISO3": "CIV",
   "City_Size": 15946,
   "GrowthRate": 0.52,
   "Market_Potential": 275134,
   "Urban_Rate": 0.38,
   "Local_Dominance": 0.0941,
   "Voronoi_area_km_square": "1,376",
   "Lon": -6.784,
   "Lat": 7.511,
   "CitySize_category": "10~30",
   "Cluster_group": " Rural Clusters "
 },
 {
   "Agglomeration_ID": 399,
   "Names": "Guibéroua",
   "ISO3": "CIV",
   "City_Size": 15566,
   "GrowthRate": 0.31,
   "Market_Potential": 552630,
   "Urban_Rate": 0.3,
   "Local_Dominance": 0.0141,
   "Voronoi_area_km_square": "1,427",
   "Lon": -6.172,
   "Lat": 6.24,
   "CitySize_category": "10~30",
   "Cluster_group": " Rural Clusters "
 },
 {
   "Agglomeration_ID": 400,
   "Names": "Sakassou",
   "ISO3": "CIV",
   "City_Size": 15456,
   "GrowthRate": 0.25,
   "Market_Potential": 476713,
   "Urban_Rate": 0.08,
   "Local_Dominance": 0.3503,
   "Voronoi_area_km_square": "1,855",
   "Lon": -5.294,
   "Lat": 7.453,
   "CitySize_category": "10~30",
   "Cluster_group": " Rural Clusters "
 },
 {
   "Agglomeration_ID": 401,
   "Names": "Guézon",
   "ISO3": "CIV",
   "City_Size": 15444,
   "GrowthRate": 0.59,
   "Market_Potential": 497385,
   "Urban_Rate": 0.36,
   "Local_Dominance": 0.0463,
   "Voronoi_area_km_square": "793",
   "Lon": -7.116,
   "Lat": 6.74,
   "CitySize_category": "10~30",
   "Cluster_group": " Rural Clusters "
 },
 {
   "Agglomeration_ID": 402,
   "Names": "Sikensi",
   "ISO3": "CIV",
   "City_Size": 15297,
   "GrowthRate": 0.26,
   "Market_Potential": 338318,
   "Urban_Rate": 0.28,
   "Local_Dominance": 0.1458,
   "Voronoi_area_km_square": "1,370",
   "Lon": -4.576,
   "Lat": 5.658,
   "CitySize_category": "10~30",
   "Cluster_group": " Rural Clusters "
 },
 {
   "Agglomeration_ID": 403,
   "Names": "Bangolo",
   "ISO3": "CIV",
   "City_Size": 15180,
   "GrowthRate": 0.18,
   "Market_Potential": 576561,
   "Urban_Rate": 0.18,
   "Local_Dominance": 0.06,
   "Voronoi_area_km_square": "1,810",
   "Lon": -7.488,
   "Lat": 7.013,
   "CitySize_category": "10~30",
   "Cluster_group": " Rural Clusters "
 },
 {
   "Agglomeration_ID": 404,
   "Names": "Bianouan",
   "ISO3": "CIV",
   "City_Size": 15109,
   "GrowthRate": 0.37,
   "Market_Potential": 206793,
   "Urban_Rate": 0.32,
   "Local_Dominance": 0.2399,
   "Voronoi_area_km_square": "558",
   "Lon": -3.194,
   "Lat": 6.011,
   "CitySize_category": "10~30",
   "Cluster_group": " Rural Clusters "
 },
 {
   "Agglomeration_ID": 405,
   "Names": "Kounouko",
   "ISO3": "CIV",
   "City_Size": 15031,
   "GrowthRate": 0.84,
   "Market_Potential": 390119,
   "Urban_Rate": 0.69,
   "Local_Dominance": 0.0057,
   "Voronoi_area_km_square": "518",
   "Lon": -6.403,
   "Lat": 4.821,
   "CitySize_category": "10~30",
   "Cluster_group": " Satellite Town "
 },
 {
   "Agglomeration_ID": 406,
   "Names": "Toulépleu",
   "ISO3": "CIV",
   "City_Size": 14878,
   "GrowthRate": 0.27,
   "Market_Potential": 210768,
   "Urban_Rate": 0.07,
   "Local_Dominance": 1,
   "Voronoi_area_km_square": "2,802",
   "Lon": -8.423,
   "Lat": 6.576,
   "CitySize_category": "10~30",
   "Cluster_group": " Rural Town "
 },
 {
   "Agglomeration_ID": 407,
   "Names": "Memni",
   "ISO3": "CIV",
   "City_Size": 14657,
   "GrowthRate": 0.39,
   "Market_Potential": 385433,
   "Urban_Rate": 0.04,
   "Local_Dominance": 1,
   "Voronoi_area_km_square": "1,384",
   "Lon": -3.74,
   "Lat": 5.511,
   "CitySize_category": "10~30",
   "Cluster_group": " Rural Town "
 },
 {
   "Agglomeration_ID": 408,
   "Names": "Ketro Bassam",
   "ISO3": "CIV",
   "City_Size": 14606,
   "GrowthRate": 0.82,
   "Market_Potential": 479722,
   "Urban_Rate": 0.82,
   "Local_Dominance": 0.0039,
   "Voronoi_area_km_square": "469",
   "Lon": -6.643,
   "Lat": 7.182,
   "CitySize_category": "10~30",
   "Cluster_group": " Satellite Town "
 },
 {
   "Agglomeration_ID": 409,
   "Names": "Niablé",
   "ISO3": "CIV",
   "City_Size": 14410,
   "GrowthRate": 0.11,
   "Market_Potential": 365765,
   "Urban_Rate": 0.37,
   "Local_Dominance": 0.0251,
   "Voronoi_area_km_square": "1,974",
   "Lon": -3.268,
   "Lat": 6.661,
   "CitySize_category": "10~30",
   "Cluster_group": " Rural Clusters "
 },